ZIP,STATE,TOWN,LAT,LON
35004,AL,ACMAR,33.584132,-86.51557
35005,AL,ADAMSVILLE,33.588437,-86.959727
35006,AL,ADGER,33.434277,-87.167455
35007,AL,KEYSTONE,33.236868,-86.812861
35010,AL,NEW SITE,32.941445,-85.951086
35014,AL,ALPINE,33.331165,-86.208934
35016,AL,ARAB,34.328339,-86.489638
35019,AL,BAILEYTON,34.268298,-86.621299
35020,AL,BESSEMER,33.409002,-86.947547
35023,AL,HUEYTOWN,33.414625,-86.999607
35031,AL,BLOUNTSVILLE,34.092937,-86.568628
35033,AL,BREMEN,33.973664,-87.004281
35034,AL,BRENT,32.93567,-87.211387
35035,AL,BRIERFIELD,33.042747,-86.951672
35040,AL,CALERA,33.1098,-86.755987
35042,AL,CENTREVILLE,32.950324,-87.11924
35043,AL,CHELSEA,33.371582,-86.614132
35044,AL,COOSA PINES,33.266928,-86.337622
35045,AL,CLANTON,32.835532,-86.642472
35049,AL,CLEVELAND,33.992106,-86.559355
35051,AL,COLUMBIANA,33.176964,-86.616145
35053,AL,CRANE HILL,34.082117,-87.048395
35054,AL,CROPWELL,33.506448,-86.280026
35055,AL,CULLMAN,34.176146,-86.829777
35061,AL,DOLOMITE,33.465424,-86.956435
35062,AL,DORA,33.734947,-87.040148
35063,AL,EMPIRE,33.825589,-87.016139
35064,AL,FAIRFIELD,33.473494,-86.918262
35068,AL,COALBURG,33.611283,-86.813614
35071,AL,GARDENDALE,33.71891,-86.822481
35072,AL,GOODWATER,33.074642,-86.078149
35073,AL,ALDEN,33.63356,-86.948221
35077,AL,HANCEVILLE,34.051569,-86.784844
35078,AL,HARPERSVILLE,33.36746,-86.429441
35079,AL,HAYDEN,33.885806,-86.81767
35080,AL,HELENA,33.316978,-86.813786
35083,AL,HOLLY POND,34.190085,-86.617441
35085,AL,JEMISON,32.980539,-86.718052
35087,AL,JOPPA,34.283739,-86.551939
35089,AL,KELLYTON,32.979068,-86.048397
35091,AL,KIMBERLY,33.768355,-86.808417
35094,AL,LEEDS,33.528333,-86.574824
35096,AL,LINCOLN,33.605913,-86.111152
35098,AL,LOGAN,34.184079,-87.038115
35111,AL,MC CALLA,33.284546,-87.102379
35114,AL,MAYLENE,33.231694,-86.872745
35115,AL,MONTEVALLO,33.124765,-86.862228
35116,AL,MORRIS,33.739172,-86.772551
35117,AL,MOUNT OLIVE,33.67678,-86.87171
35118,AL,SYLVAN SPRINGS,33.540696,-87.043998
35120,AL,ODENVILLE,33.675611,-86.408952
35121,AL,ONEONTA,33.925858,-86.474118
35124,AL,INDIAN SPRINGS,33.31046,-86.806176
35125,AL,PELL CITY,33.597889,-86.343151
35126,AL,DIXIANA,33.708131,-86.656542
35127,AL,PLEASANT GROVE,33.488336,-86.976586
35130,AL,QUINTON,33.656065,-87.10066
35131,AL,RAGLAND,33.736677,-86.1619
35133,AL,REMLAP,33.846204,-86.641662
35135,AL,RIVERSIDE,33.608832,-86.198341
35136,AL,ROCKFORD,32.877957,-86.240006
35143,AL,SHELBY,33.078483,-86.553606
35146,AL,SPRINGVILLE,33.738647,-86.439407
35147,AL,STERRETT,33.446103,-86.491732
35148,AL,SUMITON,33.768005,-87.044545
35150,AL,SYLACAUGA,33.171675,-86.271257
35160,AL,TALLADEGA,33.435445,-86.113352
35171,AL,THORSBY,32.923755,-86.746724
35172,AL,TRAFFORD,33.819038,-86.743414
35173,AL,TRUSSVILLE,33.633932,-86.598068
35175,AL,UNION GROVE,34.409345,-86.462793
35176,AL,VANDIVER,33.480704,-86.501278
35178,AL,VINCENT,33.401049,-86.399425
35179,AL,VINEMONT,34.262121,-86.912512
35180,AL,WARRIOR,33.852862,-86.819849
35183,AL,WEOGUFKA,33.02381,-86.304203
35184,AL,WEST BLOCTON,33.142431,-87.13694
35186,AL,WILSONVILLE,33.229255,-86.529894
35188,AL,WOODSTOCK,33.169808,-87.163469
35203,AL,BIRMINGHAM,33.520994,-86.806626
35204,AL,BIRMINGHAM,33.51795,-86.837198
35205,AL,BIRMINGHAM,33.495144,-86.805937
35206,AL,BIRMINGHAM,33.567797,-86.719854
35207,AL,BIRMINGHAM,33.559383,-86.815344
35208,AL,BIRMINGHAM,33.497658,-86.879884
35209,AL,HOMEWOOD,33.469624,-86.806738
35210,AL,IRONDALE,33.532797,-86.685697
35211,AL,BIRMINGHAM,33.481565,-86.85904
35212,AL,BIRMINGHAM,33.540883,-86.749524
35213,AL,CRESTLINE HEIGHT,33.508195,-86.742108
35214,AL,BIRMINGHAM,33.555445,-86.886989
35215,AL,CENTER POINT,33.635447,-86.693197
35216,AL,VESTAVIA HILLS,33.41531,-86.790425
35217,AL,BIRMINGHAM,33.5887,-86.764995
35218,AL,BIRMINGHAM,33.505972,-86.892993
35221,AL,BIRMINGHAM,33.452316,-86.893493
35222,AL,BIRMINGHAM,33.521859,-86.766579
35223,AL,MOUNTAIN BROOK,33.488726,-86.736584
35224,AL,BIRMINGHAM,33.519126,-86.934193
35226,AL,BLUFF PARK,33.403675,-86.831257
35228,AL,MIDFIELD,33.462446,-86.914703
35233,AL,BIRMINGHAM,33.506161,-86.800257
35234,AL,BIRMINGHAM,33.53775,-86.80685
35235,AL,CENTER POINT,33.618045,-86.661051
35242,AL,SHOAL CREEK,33.401559,-86.705511
35243,AL,CAHABA HEIGHTS,33.446053,-86.743676
35244,AL,HOOVER,33.371776,-86.776381
35401,AL,TUSCALOOSA,33.196891,-87.562666
35404,AL,HOLT,33.210914,-87.488079
35405,AL,TUSCALOOSA,33.161704,-87.514435
35406,AL,TUSCALOOSA,33.272174,-87.536035
35441,AL,STEWART,32.872354,-87.708558
35442,AL,ALICEVILLE,33.122813,-88.166689
35443,AL,BOLIGEE,32.774646,-88.026652
35444,AL,BROOKWOOD,33.277523,-87.309025
35446,AL,BUHL,33.249448,-87.718886
35447,AL,CARROLLTON,33.248506,-88.132122
35452,AL,COKER,33.252612,-87.636528
35453,AL,COTTONDALE,33.176667,-87.387051
35456,AL,DUNCANVILLE,33.082815,-87.494977
35457,AL,ECHOLA,33.316559,-87.807202
35458,AL,ELROD,33.343678,-87.801429
35459,AL,EMELLE,32.754963,-88.305747
35460,AL,EPES,32.763371,-88.161443
35461,AL,ETHELSVILLE,33.386816,-88.221987
35462,AL,EUTAW,32.888871,-87.930297
35463,AL,FOSTERS,33.135859,-87.735688
35464,AL,GAINESVILLE,32.908364,-88.271558
35466,AL,GORDO,33.346917,-87.900504
35469,AL,KNOXVILLE,32.982423,-87.791855
35470,AL,COATOPA,32.588509,-88.173592
35474,AL,CYPRESS,32.978853,-87.615134
35476,AL,NORTHPORT,33.283425,-87.591441
35480,AL,RALPH,33.062868,-87.744984
35481,AL,REFORM,33.395945,-88.020277
35490,AL,VANCE,33.17498,-87.257362
35501,AL,JASPER,33.871672,-87.249144
35540,AL,ADDISON,34.205571,-87.194766
35541,AL,ARLEY,34.063234,-87.182761
35542,AL,BANKSTON,33.70083,-87.68965
35543,AL,BEAR CREEK,34.213469,-87.686083
35544,AL,BEAVERTON,33.942877,-88.01567
35546,AL,BERRY,33.694485,-87.622563
35548,AL,BRILLIANT,34.037702,-87.756315
35549,AL,CARBON HILL,33.909252,-87.540328
35550,AL,CORDOVA,33.768033,-87.18406
35552,AL,DETROIT,34.010874,-88.16063
35553,AL,DOUBLE SPRINGS,34.138682,-87.397431
35554,AL,ELDRIDGE,33.931546,-87.619397
35555,AL,FAYETTE,33.697397,-87.834647
35563,AL,GUIN,33.967624,-87.90238
35564,AL,HACKLEBURG,34.267803,-87.860762
35565,AL,HALEYVILLE,34.231423,-87.593811
35570,AL,HAMILTON,34.153413,-88.008521
35571,AL,HODGES,34.341664,-87.959023
35572,AL,HOUSTON,34.118042,-87.26183
35574,AL,KENNEDY,33.574964,-88.05172
35575,AL,LYNN,34.052984,-87.539814
35576,AL,MILLPORT,33.54013,-88.200003
35578,AL,NAUVOO,33.929859,-87.432449
35579,AL,OAKMAN,33.700174,-87.368574
35580,AL,PARRISH,33.721307,-87.265773
35581,AL,PHIL CAMPBELL,34.347018,-87.715431
35582,AL,RED BAY,34.451259,-88.112914
35585,AL,SPRUCE PINE,34.384796,-87.712149
35586,AL,SULLIGENT,33.8549,-88.150774
35587,AL,TOWNLEY,33.84702,-87.437248
35592,AL,VERNON,33.761285,-88.097919
35593,AL,VINA,34.37116,-88.077422
35594,AL,WINFIELD,33.930256,-87.79716
35601,AL,DECATUR,34.589599,-86.98868
35603,AL,DECATUR,34.548417,-87.000389
35610,AL,ANDERSON,34.951777,-87.272327
35611,AL,ATHENS,34.803604,-86.970733
35616,AL,CHEROKEE,34.744188,-87.972445
35618,AL,COURTLAND,34.671866,-87.314255
35619,AL,DANVILLE,34.452189,-87.053187
35620,AL,ELKMONT,34.915241,-86.910452
35621,AL,EVA,34.347778,-86.704427
35622,AL,FALKVILLE,34.347653,-86.913086
35630,AL,FLORENCE,34.830547,-87.655985
35633,AL,FLORENCE,34.882471,-87.739778
35640,AL,HARTSELLE,34.448206,-86.924235
35643,AL,HILLSBORO,34.64763,-87.180379
35645,AL,KILLEN,34.901632,-87.508185
35646,AL,LEIGHTON,34.710982,-87.522133
35647,AL,LESTER,34.918364,-87.143396
35648,AL,LEXINGTON,34.955924,-87.393519
35650,AL,MOULTON,34.505836,-87.222385
35651,AL,MOUNT HOPE,34.462969,-87.451453
35652,AL,ROGERSVILLE,34.849544,-87.323671
35653,AL,RUSSELLVILLE,34.506568,-87.725726
35660,AL,SHEFFIELD,34.757829,-87.697057
35661,AL,MUSCLE SHOALS,34.756136,-87.630443
35670,AL,SOMERVILLE,34.499548,-86.800931
35671,AL,TANNER,34.713037,-86.989152
35672,AL,TOWN CREEK,34.649138,-87.426195
35673,AL,TRINITY,34.591771,-87.09127
35674,AL,TUSCUMBIA,34.687432,-87.683259
35677,AL,WATERLOO,34.93568,-87.962412
35739,AL,ARDMORE,34.980447,-86.834612
35740,AL,BRIDGEPORT,34.944638,-85.727681
35741,AL,BROWNSBORO,34.716733,-86.468703
35744,AL,DUTTON,34.604558,-85.906729
35745,AL,ESTILLFORK,34.913017,-86.171571
35746,AL,FACKLER,34.82589,-85.984648
35747,AL,GRANT,34.495902,-86.259041
35748,AL,GURLEY,34.713964,-86.394028
35749,AL,HARVEST,34.82732,-86.749929
35750,AL,HAZEL GREEN,34.949627,-86.593484
35751,AL,HOLLYTREE,34.798979,-86.233627
35752,AL,HOLLYWOOD,34.730428,-85.953173
35754,AL,LACEYS SPRING,34.499647,-86.612869
35755,AL,LANGSTON,34.497831,-86.10563
35758,AL,TRIANA,34.713409,-86.750951
35759,AL,MERIDIANVILLE,34.861779,-86.578879
35760,AL,NEW HOPE,34.549445,-86.3961
35761,AL,NEW MARKET,34.899991,-86.448742
35763,AL,BIG COVE,34.612859,-86.466577
35764,AL,PAINT ROCK,34.667122,-86.332562
35765,AL,PISGAH,34.688601,-85.803044
35766,AL,PRINCETON,34.840217,-86.250068
35768,AL,HYTOP,34.67227,-86.051336
35771,AL,SECTION,34.543275,-85.994002
35772,AL,STEVENSON,34.876885,-85.850803
35773,AL,TONEY,34.911644,-86.699951
35774,AL,TRENTON,34.740065,-86.291264
35775,AL,VALHERMOSO SPRIN,34.538145,-86.678
35776,AL,WOODVILLE,34.668927,-86.22961
35801,AL,HUNTSVILLE,34.726866,-86.567318
35802,AL,HUNTSVILLE,34.667922,-86.560347
35803,AL,HUNTSVILLE,34.620506,-86.55096
35805,AL,HUNTSVILLE,34.705943,-86.616493
35806,AL,HUNTSVILLE,34.744765,-86.670411
35808,AL,HUNTSVILLE,34.684525,-86.653821
35810,AL,HUNTSVILLE,34.778378,-86.609063
35811,AL,HUNTSVILLE,34.778949,-86.543786
35816,AL,HUNTSVILLE,34.738864,-86.624948
35824,AL,HUNTSVILLE,34.658321,-86.729486
35901,AL,SOUTHSIDE,33.997248,-86.010279
35903,AL,HOKES BLUFF,33.997057,-85.928724
35904,AL,GADSDEN,34.021694,-86.049479
35905,AL,GLENCOE,33.956787,-85.927586
35950,AL,ALBERTVILLE,34.273859,-86.206447
35952,AL,SNEAD,34.042916,-86.350879
35953,AL,ASHVILLE,33.837366,-86.255167
35954,AL,ATTALLA,34.029597,-86.096717
35957,AL,BOAZ,34.173686,-86.148003
35958,AL,BRYANT,34.945026,-85.632445
35959,AL,CEDAR BLUFF,34.241662,-85.602567
35960,AL,CENTRE,34.111592,-85.609229
35961,AL,COLLINSVILLE,34.267957,-85.861969
35962,AL,CROSSVILLE,34.258784,-86.030575
35963,AL,DAWSON,34.356838,-85.929161
35966,AL,FLAT ROCK,34.807598,-85.708372
35967,AL,FORT PAYNE,34.436792,-85.712394
35971,AL,FYFFE,34.437284,-85.928849
35972,AL,GALLANT,33.997586,-86.234606
35973,AL,GAYLESVILLE,34.357324,-85.558893
35974,AL,GERALDINE,34.343864,-86.040393
35975,AL,GROVEOAK,34.435874,-86.040023
35976,AL,GUNTERSVILLE,34.32193,-86.305463
35978,AL,HENAGAR,34.618604,-85.727381
35979,AL,HIGDON,34.873247,-85.622507
35980,AL,HORTON,34.190033,-86.317318
35981,AL,IDER,34.735059,-85.641577
35983,AL,LEESBURG,34.191083,-85.77051
35984,AL,MENTONE,34.587236,-85.577728
35986,AL,RAINSVILLE,34.498884,-85.844605
35987,AL,STEELE,33.941679,-86.228929
35988,AL,SYLVANIA,34.558962,-85.792128
35989,AL,VALLEY HEAD,34.5697,-85.627208
36003,AL,AUTAUGAVILLE,32.462462,-86.714938
36004,AL,EUFAULA,31.786701,-85.239657
36005,AL,BANKS,31.836792,-85.799844
36006,AL,BILLINGSLEY,32.610578,-86.716301
36009,AL,BRANTLEY,31.570963,-86.274343
36010,AL,BRUNDIDGE,31.701324,-85.817668
36013,AL,CECIL,32.300891,-86.011241
36016,AL,CLAYTON,31.887413,-85.450932
36017,AL,CLIO,31.68521,-85.590419
36022,AL,DEATSVILLE,32.613405,-86.338211
36024,AL,ECLECTIC,32.65419,-86.031614
36025,AL,ELMORE,32.545378,-86.316134
36026,AL,EQUALITY,32.813908,-86.105064
36027,AL,EUFAULA,31.905063,-85.165605
36028,AL,DOZIER,31.506614,-86.366315
36029,AL,FITZPATRICK,32.151607,-85.888329
36030,AL,FOREST HOME,31.85318,-86.786377
36031,AL,FORT DAVIS,32.28945,-85.700688
36032,AL,FORT DEPOSIT,31.995979,-86.576142
36033,AL,GEORGIANA,31.628662,-86.733965
36034,AL,GLENWOOD,31.664143,-86.170972
36035,AL,GOSHEN,31.82497,-86.104851
36036,AL,GRADY,32.019397,-86.129246
36037,AL,GREENVILLE,31.810036,-86.622919
36038,AL,GANTT,31.416909,-86.419836
36039,AL,HARDAWAY,32.312939,-85.883837
36040,AL,HAYNEVILLE,32.195707,-86.654994
36041,AL,HIGHLAND HOME,31.928292,-86.297111
36042,AL,HONORAVILLE,31.878397,-86.398064
36043,AL,HOPE HULL,32.224256,-86.393189
36046,AL,LAPINE,31.985423,-86.278534
36047,AL,LETOHATCHEE,32.086199,-86.488013
36048,AL,LOUISVILLE,31.794262,-85.558062
36049,AL,LUVERNE,31.70739,-86.256601
36051,AL,MARBURY,32.639373,-86.510138
36052,AL,MATHEWS,32.128288,-86.041262
36053,AL,MIDWAY,32.09552,-85.531523
36054,AL,MILLBROOK,32.499485,-86.364125
36061,AL,PEROTE,32.003459,-85.74773
36064,AL,PIKE ROAD,32.335705,-86.09589
36066,AL,PRATTVILLE,32.478695,-86.42997
36067,AL,PRATTVILLE,32.471501,-86.483072
36069,AL,RAMER,32.067745,-86.246329
36071,AL,RUTLEDGE,31.755867,-86.348464
36075,AL,SHORTER,32.383585,-85.91616
36078,AL,TALLASSEE,32.550997,-85.89781
36080,AL,TITUS,32.690019,-86.239334
36081,AL,TROY,31.794471,-85.965493
36083,AL,TUSKEGEE,32.431623,-85.68606
36088,AL,TUSKEGEE INSTITU,32.417699,-85.714848
36089,AL,UNION SPRINGS,32.166252,-85.678746
36091,AL,VERBENA,32.759565,-86.543753
36092,AL,WETUMPKA,32.54509,-86.188039
36104,AL,MONTGOMERY,32.373037,-86.308129
36105,AL,MONTGOMERY,32.32573,-86.310449
36106,AL,MONTGOMERY,32.354268,-86.267278
36107,AL,MONTGOMERY,32.380405,-86.279885
36108,AL,MONTGOMERY,32.341682,-86.352904
36109,AL,MONTGOMERY,32.383443,-86.243394
36110,AL,MONTGOMERY,32.421686,-86.274997
36111,AL,MONTGOMERY,32.337363,-86.271543
36113,AL,MAXWELL A F B,32.388133,-86.355848
36115,AL,GUNTER AFS,32.406814,-86.247327
36116,AL,MONTGOMERY,32.312943,-86.242056
36117,AL,MONTGOMERY,32.373568,-86.183299
36201,AL,ANNISTON,33.653896,-85.838152
36203,AL,OXFORD,33.596829,-85.83347
36205,AL,FORT MC CLELLAN,33.710168,-85.801467
36206,AL,ANNISTON,33.719124,-85.838904
36250,AL,ALEXANDRIA,33.780785,-85.892447
36251,AL,ASHLAND,33.247363,-85.828976
36255,AL,CRAGFORD,33.217148,-85.710797
36256,AL,DAVISTON,33.033471,-85.753831
36258,AL,DELTA,33.457303,-85.679279
36260,AL,EASTABOGA,33.603132,-85.96075
36262,AL,FRUITHURST,33.771732,-85.43814
36263,AL,GRAHAM,33.462976,-85.334034
36264,AL,HEFLIN,33.611515,-85.588471
36265,AL,JACKSONVILLE,33.830966,-85.77518
36266,AL,LINEVILLE,33.328613,-85.734609
36267,AL,MILLERVILLE,33.158959,-85.969001
36268,AL,MUNFORD,33.540987,-85.936322
36269,AL,MUSCADINE,33.752913,-85.378907
36270,AL,NEWELL,33.440172,-85.505925
36271,AL,OHATCHEE,33.778779,-86.025357
36272,AL,PIEDMONT,33.838946,-85.645997
36273,AL,RANBURNE,33.561627,-85.378604
36274,AL,ROCK MILLS,33.156443,-85.357854
36276,AL,WADLEY,33.149192,-85.551344
36277,AL,WEAVER,33.756286,-85.810666
36278,AL,WEDOWEE,33.301854,-85.473737
36279,AL,WELLINGTON,33.863843,-85.915325
36280,AL,WOODLAND,33.355453,-85.353768
36301,AL,TAYLOR,31.202888,-85.418036
36303,AL,NAPIER FIELD,31.255239,-85.412462
36310,AL,ABBEVILLE,31.575479,-85.279044
36311,AL,ARITON,31.582996,-85.707716
36312,AL,ASHFORD,31.1888,-85.253488
36314,AL,BLACK,31.01318,-85.745634
36316,AL,CHANCELLOR,31.173379,-85.910897
36317,AL,CLOPTON,31.602843,-85.482308
36318,AL,COFFEE SPRINGS,31.138758,-85.918224
36319,AL,COLUMBIA,31.335235,-85.145488
36320,AL,COTTONWOOD,31.098934,-85.375665
36322,AL,DALEVILLE,31.281091,-85.730473
36323,AL,ELBA,31.41373,-86.077728
36330,AL,ENTERPRISE,31.340789,-85.842111
36340,AL,GENEVA,31.041445,-85.884748
36343,AL,GORDON,31.10019,-85.123412
36344,AL,HARTFORD,31.08598,-85.719204
36345,AL,HEADLAND,31.353406,-85.332277
36346,AL,JACK,31.552392,-86.043083
36349,AL,MALVERN,31.157528,-85.522327
36350,AL,MIDLAND CITY,31.36716,-85.513033
36351,AL,NEW BROCKTON,31.36898,-85.940386
36352,AL,NEWTON,31.331064,-85.599229
36353,AL,NEWVILLE,31.440295,-85.328741
36360,AL,OZARK,31.439069,-85.643629
36362,AL,FORT RUCKER,31.348011,-85.721374
36370,AL,PANSEY,31.131778,-85.238549
36373,AL,SHORTERVILLE,31.625627,-85.14584
36374,AL,SKIPPERVILLE,31.551588,-85.549578
36375,AL,SLOCOMB,31.095558,-85.582954
36376,AL,WEBB,31.265618,-85.254385
36401,AL,EVERGREEN,31.458009,-86.925771
36419,AL,ALLEN,31.624266,-87.66746
36420,AL,ANDALUSIA,31.297142,-86.490468
36425,AL,BEATRICE,31.727324,-87.171912
36426,AL,EAST BREWTON,31.118926,-87.067325
36432,AL,CASTLEBERRY,31.326113,-87.026754
36435,AL,COY,31.888851,-87.392558
36436,AL,DICKINSON,31.717167,-87.656929
36441,AL,FLOMATON,31.040233,-87.266365
36442,AL,FLORALA,31.017194,-86.338528
36444,AL,FRANKLIN,31.723815,-87.441237
36445,AL,FRISCO CITY,31.423478,-87.381744
36446,AL,FULTON,31.790947,-87.708065
36451,AL,GROVE HILL,31.675502,-87.763571
36453,AL,KINSTON,31.262118,-86.069532
36454,AL,LENOX,31.327261,-87.19671
36456,AL,MC KENZIE,31.54495,-86.735615
36460,AL,MONROEVILLE,31.51533,-87.340993
36467,AL,OPP,31.279861,-86.257105
36471,AL,PETERMAN,31.589953,-87.259984
36473,AL,RANGE,31.30169,-87.319739
36474,AL,RED LEVEL,31.439931,-86.61209
36475,AL,REPTON,31.425569,-87.172039
36477,AL,SAMSON,31.104918,-86.067416
36480,AL,URIAH,31.313467,-87.570518
36481,AL,VREDENBURGH,31.73443,-87.416184
36482,AL,WHATLEY,31.639453,-87.656502
36483,AL,WING,31.148127,-86.56119
36502,AL,ATMORE,31.057245,-87.487347
36505,AL,AXIS,31.006817,-88.04274
36507,AL,BAY MINETTE,30.86354,-87.76444
36509,AL,BAYOU LA BATRE,30.407983,-88.250697
36510,AL,BIGBEE,31.589072,-88.165294
36511,AL,BON SECOUR,30.328883,-87.721355
36515,AL,CARLTON,31.322449,-87.837793
36518,AL,CHATOM,31.487638,-88.269887
36521,AL,CHUNCHULA,30.991178,-88.131126
36522,AL,CITRONELLE,31.042533,-88.254949
36523,AL,CODEN,30.418834,-88.168276
36524,AL,COFFEEVILLE,31.78428,-88.071542
36525,AL,CREOLA,30.901267,-88.017414
36526,AL,DAPHNE,30.61972,-87.889522
36527,AL,SPANISH FORT,30.695852,-87.88668
36528,AL,DAUPHIN ISLAND,30.252057,-88.109644
36529,AL,DEER PARK,31.184892,-88.32731
36530,AL,ELBERTA,30.394239,-87.58896
36532,AL,FAIRHOPE,30.50116,-87.883546
36535,AL,FOLEY,30.400664,-87.685737
36538,AL,FRANKVILLE,31.64684,-88.133185
36539,AL,FRUITDALE,31.348843,-88.376597
36540,AL,GAINESTOWN,31.425822,-87.682176
36541,AL,GRAND BAY,30.498288,-88.32825
36542,AL,FORT MORGAN,30.268954,-87.712795
36544,AL,IRVINGTON,30.480241,-88.239563
36545,AL,JACKSON,31.513098,-87.867192
36548,AL,LEROY,31.491021,-87.968672
36549,AL,LILLIAN,30.39724,-87.474452
36550,AL,LITTLE RIVER,31.22459,-87.754796
36551,AL,LOXLEY,30.617964,-87.75624
36553,AL,MC INTOSH,31.236108,-88.051102
36555,AL,MAGNOLIA SPRINGS,30.394497,-87.785781
36558,AL,MILLRY,31.626871,-88.355872
36560,AL,MOUNT VERNON,31.097375,-88.035044
36561,AL,ORANGE BEACH,30.290596,-87.555888
36562,AL,PERDIDO,30.98058,-87.628374
36567,AL,ROBERTSDALE,30.561608,-87.637268
36569,AL,SAINT STEPHENS,31.533028,-88.052094
36570,AL,SALITPA,31.654667,-87.959618
36571,AL,SARALAND,30.833197,-88.093387
36572,AL,SATSUMA,30.851628,-88.053312
36574,AL,SEMINOLE,30.504806,-87.465938
36575,AL,SEMMES,30.754408,-88.266705
36576,AL,SILVERHILL,30.522237,-87.745676
36579,AL,STOCKTON,31.01293,-87.863323
36580,AL,SUMMERDALE,30.475225,-87.699183
36582,AL,THEODORE,30.544374,-88.180748
36583,AL,TIBBIE,31.373742,-88.266828
36584,AL,VINEGAR BEND,31.25841,-88.386466
36585,AL,WAGARVILLE,31.410205,-88.070519
36586,AL,WALKER SPRINGS,31.626166,-87.835355
36587,AL,WILMER,30.813745,-88.333196
36602,AL,MOBILE,30.688828,-88.045308
36603,AL,MOBILE,30.692141,-88.05622
36604,AL,MOBILE,30.681963,-88.067804
36605,AL,MOBILE,30.634117,-88.084646
36606,AL,MOBILE,30.672899,-88.100909
36607,AL,MOBILE,30.697486,-88.1029
36608,AL,MOBILE,30.69636,-88.187784
36609,AL,MOBILE,30.660527,-88.161806
36610,AL,PRICHARD,30.737846,-88.083761
36611,AL,CHICKASAW,30.766821,-88.084973
36612,AL,MOBILE,30.751844,-88.11311
36613,AL,EIGHT MILE,30.795074,-88.182311
36615,AL,BROOKLEY FIELD,30.631199,-88.068871
36617,AL,MOBILE,30.714522,-88.091796
36618,AL,MOBILE,30.732178,-88.175753
36619,AL,MOBILE,30.592803,-88.194645
36693,AL,MOBILE,30.631076,-88.158843
36695,AL,MOBILE,30.647431,-88.229245
36701,AL,SELMA,32.419719,-87.024527
36703,AL,SELMA,32.415553,-87.013546
36720,AL,ALBERTA,32.144889,-87.342503
36722,AL,ARLINGTON,32.066784,-87.559691
36726,AL,CAMDEN,32.004732,-87.295049
36727,AL,CAMPBELL,31.963512,-88.006072
36728,AL,CATHERINE,32.182,-87.483623
36732,AL,DEMOPOLIS,32.490792,-87.839669
36736,AL,DIXONS MILLS,32.067209,-87.745356
36738,AL,FAUNSDALE,32.423259,-87.618079
36740,AL,FORKLAND,32.644661,-87.881676
36742,AL,GALLION,32.529771,-87.698542
36744,AL,GREENSBORO,32.716721,-87.590494
36748,AL,LINDEN,32.305343,-87.795358
36749,AL,JONES,32.608515,-86.889266
36750,AL,MAPLESVILLE,32.804507,-86.871704
36751,AL,LOWER PEACH TREE,31.850365,-87.568224
36752,AL,BURKVILLE,32.300292,-86.609868
36754,AL,MAGNOLIA,32.141931,-87.699815
36756,AL,MARION,32.646301,-87.331437
36758,AL,PLANTERSVILLE,32.617608,-86.947531
36759,AL,MARION JUNCTION,32.426589,-87.270181
36761,AL,BOYS RANCH,32.095387,-86.92497
36762,AL,MORVIN,31.967305,-87.972897
36765,AL,NEWBERN,32.551465,-87.561472
36767,AL,ORRVILLE,32.294859,-87.221368
36768,AL,PINE APPLE,31.926522,-87.004667
36769,AL,PINE HILL,31.973546,-87.577086
36771,AL,PRAIRIE,32.084762,-87.448723
36773,AL,SAFFORD,32.300242,-87.369345
36775,AL,SARDIS,32.284358,-86.991959
36776,AL,SAWYERVILLE,32.757796,-87.740201
36779,AL,SPROTT,32.654376,-87.141599
36782,AL,SWEET WATER,32.077272,-87.922755
36783,AL,THOMASTON,32.253776,-87.597438
36784,AL,THOMASVILLE,31.906728,-87.759842
36785,AL,BENTON,32.281924,-86.859867
36786,AL,UNIONTOWN,32.446966,-87.493398
36790,AL,STANTON,32.709631,-86.886848
36792,AL,RANDOLPH,32.888834,-86.90701
36793,AL,LAWLEY,32.864558,-86.956708
36801,AL,OPELIKA,32.627771,-85.358629
36830,AL,AUBURN,32.602043,-85.489001
36850,AL,CAMP HILL,32.782749,-85.64738
36852,AL,CUSSETA,32.803194,-85.215791
36853,AL,DADEVILLE,32.82239,-85.770395
36854,AL,VALLEY,32.811349,-85.174911
36855,AL,FIVE POINTS,33.042408,-85.324264
36858,AL,HATCHECHUBBEE,32.284531,-85.302882
36860,AL,HURTSBORO,32.245429,-85.395903
36861,AL,JACKSONS GAP,32.879698,-85.848662
36862,AL,LAFAYETTE,32.925237,-85.442563
36863,AL,LANETT,32.861609,-85.21608
36866,AL,NOTASULGA,32.543727,-85.68707
36867,AL,PHENIX CITY,32.407816,-85.095082
36869,AL,PHENIX CITY,32.470647,-85.018118
36871,AL,PITTSVIEW,32.173346,-85.131248
36874,AL,SALEM,32.621157,-85.183966
36875,AL,SEALE,32.305339,-85.167733
36877,AL,SMITHS,32.520072,-85.100027
36879,AL,WAVERLY,32.763167,-85.514372
36904,AL,BUTLER,32.082906,-88.206391
36907,AL,CUBA,32.410973,-88.361083
36908,AL,GILBERTOWN,31.866602,-88.326514
36910,AL,JACHIN,32.244174,-88.233356
36912,AL,LISMAN,32.217722,-88.323419
36915,AL,NEEDHAM,32.012165,-88.345798
36916,AL,PENNINGTON,32.226245,-88.0931
36919,AL,SILAS,31.766754,-88.309149
36921,AL,TOXEY,31.93153,-88.31794
36922,AL,WARD,32.334063,-88.297114
36925,AL,YORK,32.472765,-88.268304
98791,AK,98791,51.938901,-176.310048
99501,AK,ANCHORAGE,61.211571,-149.876077
99502,AK,ANCHORAGE,61.096163,-150.093943
99503,AK,ANCHORAGE,61.189953,-149.893844
99504,AK,ANCHORAGE,61.203696,-149.74467
99505,AK,FORT RICHARDSON,61.275256,-149.675454
99506,AK,ELMENDORF AFB,61.251531,-149.812667
99507,AK,ANCHORAGE,61.153543,-149.828912
99508,AK,ANCHORAGE,61.205959,-149.810085
99515,AK,ANCHORAGE,61.119381,-149.897401
99516,AK,ANCHORAGE,61.10541,-149.779998
99517,AK,ANCHORAGE,61.190136,-149.936111
99518,AK,ANCHORAGE,61.154862,-149.886571
99549,AK,PORT HEIDEN,56.964333,-158.566367
99551,AK,AKIACHAK,60.891854,-161.39233
99552,AK,AKIAK,60.890632,-161.199325
99553,AK,AKUTAN,54.143012,-165.785368
99554,AK,ALAKANUK,62.746967,-164.60228
99555,AK,ALEKNAGIK,59.269688,-158.619882
99556,AK,NIKOLAEVSK,59.788818,-151.732933
99557,AK,CHUATHBALUK,61.691648,-157.758502
99558,AK,ANVIK,62.830913,-160.130441
99559,AK,ATMAUTLUAK,60.832389,-161.824053
99561,AK,CHEFORNAK,60.153746,-164.210294
99563,AK,CHEVAK,61.583982,-164.776457
99564,AK,CHIGNIK,56.301639,-158.415696
99565,AK,CHIGNIK LAGOON,56.251277,-158.673528
99567,AK,CHUGIAK,61.409802,-149.453736
99568,AK,CLAM GULCH,60.201603,-151.422628
99569,AK,CLARKS POINT,58.84921,-158.451241
99571,AK,NELSON LAGOON,55.610952,-161.942941
99572,AK,COOPER LANDING,60.476692,-149.823514
99573,AK,COPPER CENTER,61.91581,-144.97793
99574,AK,CHENEGA BAY,60.102558,-147.943316
99575,AK,CROOKED CREEK,61.818072,-158.002483
99576,AK,KOLIGANEK,59.059279,-158.973533
99577,AK,EAGLE RIVER,61.311357,-149.508515
99578,AK,EEK,60.215058,-162.032341
99579,AK,EGEGIK,58.206174,-157.342202
99580,AK,EKWOK,59.362792,-157.478211
99581,AK,EMMONAK,62.827404,-164.131298
99583,AK,FALSE PASS,54.841028,-163.436845
99585,AK,MARSHALL,61.837087,-161.7394
99586,AK,SLANA,62.654744,-143.568393
99588,AK,GLENNALLEN,62.103895,-145.661684
99589,AK,GOODNEWS BAY,59.085008,-161.587146
99590,AK,GRAYLING,63.372013,-159.404907
99591,AK,SAINT GEORGE ISL,56.60324,-169.547257
99602,AK,HOLY CROSS,62.192584,-159.825092
99603,AK,PORT GRAHAM,59.665495,-151.462644
99604,AK,HOOPER BAY,61.537157,-165.891045
99606,AK,KOKHANOK,59.564836,-155.462556
99607,AK,KALSKAG,61.541006,-160.3261
99610,AK,KASILOF,60.316365,-151.28958
99611,AK,KENAI,60.614467,-151.254556
99612,AK,KING COVE,55.062848,-162.305561
99613,AK,IGIUGIG,58.724264,-156.641603
99614,AK,KIPNUK,59.923204,-164.101013
99615,AK,AKHIOK,57.781967,-152.500169
99620,AK,KOTLIK,63.029471,-163.554153
99621,AK,KWETHLUK,60.771814,-161.38849
99622,AK,KWIGILLINGOK,59.881022,-162.984938
99625,AK,LEVELOCK,59.371395,-154.976815
99626,AK,LOWER KALSKAG,61.51377,-160.359966
99627,AK,MC GRATH,62.967153,-155.585153
99628,AK,MANOKOTAK,59.009559,-158.989699
99630,AK,MEKORYUK,60.365679,-166.283583
99631,AK,MOOSE PASS,60.85852,-149.255911
99632,AK,MOUNTAIN VILLAGE,62.158913,-163.883822
99633,AK,NAKNEK,58.885699,-156.705405
99634,AK,NAPAKIAK,60.663758,-161.738144
99636,AK,NEW STUYAHOK,59.593533,-157.297205
99638,AK,NIKOLSKI,52.988337,-168.788427
99639,AK,NINILCHIK,60.010833,-151.639604
99640,AK,NONDALTON,60.030837,-154.731675
99645,AK,BUTTE,61.613814,-149.065323
99647,AK,PEDRO BAY,59.92238,-153.821856
99648,AK,PERRYVILLE,55.945289,-159.259333
99649,AK,PILOT POINT,57.595193,-157.449272
99650,AK,PILOT STATION,61.946159,-162.874716
99651,AK,PLATINUM,58.63364,-162.043201
99653,AK,PORT ALSWORTH,60.636416,-154.433803
99654,AK,WASILLA,61.592349,-149.395875
99655,AK,QUINHAGAK,59.738057,-161.874938
99656,AK,RED DEVIL,61.735389,-157.195969
99657,AK,RUSSIAN MISSION,61.591302,-161.558413
99658,AK,SAINT MARYS,62.054106,-163.205263
99659,AK,SAINT MICHAEL,63.47759,-162.109141
99660,AK,SAINT PAUL ISLAN,57.178697,-170.293408
99661,AK,SAND POINT,55.319236,-160.491435
99662,AK,SCAMMON BAY,61.845019,-165.581945
99664,AK,SEWARD,60.132874,-149.39849
99665,AK,SHAGELUK,62.661092,-159.52816
99668,AK,SLEETMUTE,61.634555,-157.118284
99669,AK,SOLDOTNA,60.481778,-151.13582
99670,AK,SOUTH NAKNEK,58.736221,-156.850289
99671,AK,STEBBINS,63.478468,-162.227355
99672,AK,STERLING,60.520373,-150.849792
99676,AK,TALKEETNA,62.260516,-150.110097
99679,AK,TULUKSAK,61.108848,-160.938924
99681,AK,TUNUNAK,60.539322,-165.097464
99682,AK,TYONEK,61.117929,-151.348495
99683,AK,TRAPPER CREEK,61.441361,-150.284455
99684,AK,UNALAKLEET,63.883478,-160.788365
99685,AK,UNALASKA,53.887114,-166.519855
99686,AK,VALDEZ,60.895044,-146.195628
99687,AK,WASILLA,61.578032,-149.533003
99688,AK,WILLOW,61.771511,-150.188891
99689,AK,YAKUTAT,59.620211,-139.778858
99691,AK,NIKOLAI,63.001603,-154.381247
99692,AK,DUTCH HARBOR,53.362757,-167.510656
99701,AK,COLDFOOT,64.840238,-147.710431
99702,AK,EIELSON AFB,64.67352,-147.08051
99703,AK,FORT WAINWRIGHT,64.828303,-147.655673
99704,AK,CLEAR,64.418121,-149.139885
99705,AK,NORTH POLE,64.78049,-147.369353
99709,AK,FAIRBANKS,64.85437,-147.846917
99712,AK,FAIRBANKS,64.910879,-147.510479
99714,AK,SALCHA,64.50905,-146.952974
99720,AK,ALLAKAKET,66.543197,-152.712155
99721,AK,ANAKTUVUK PASS,68.11878,-151.679005
99722,AK,ARCTIC VILLAGE,68.077395,-145.423115
99723,AK,BARROW,71.234637,-156.817409
99724,AK,BEAVER,66.33883,-147.279803
99726,AK,BETTLES FIELD,67.100495,-151.062414
99727,AK,BUCKLAND,65.981052,-161.131676
99729,AK,CANTWELL,63.395458,-148.89735
99730,AK,CENTRAL,65.468058,-144.74886
99733,AK,CIRCLE,65.824542,-144.08262
99734,AK,PRUDHOE BAY,70.070057,-148.559636
99736,AK,DEERING,66.062265,-162.711951
99737,AK,DOT LAKE,64.005426,-145.613611
99739,AK,ELIM,64.621662,-162.260371
99740,AK,FORT YUKON,66.520744,-145.306439
99741,AK,GALENA,64.760784,-156.797701
99742,AK,GAMBELL,63.776555,-171.701685
99743,AK,HEALY,63.917123,-149.011128
99744,AK,ANDERSON,64.300693,-149.1718
99745,AK,HUGHES,66.038246,-154.26443
99746,AK,HUSLIA,65.689918,-156.291976
99747,AK,KAKTOVIK,70.042889,-143.631329
99748,AK,KALTAG,64.330452,-158.724251
99749,AK,KIANA,67.18026,-158.152204
99750,AK,KIVALINA,67.665859,-163.733617
99751,AK,KOBUK,66.912253,-157.066864
99752,AK,KOTZEBUE,66.846459,-162.126493
99753,AK,KOYUK,64.931668,-161.149957
99755,AK,DENALI NATIONAL,63.516075,-149.539532
99756,AK,MANLEY HOT SPRIN,65.02058,-150.573267
99757,AK,LAKE MINCHUMINA,63.903884,-152.430081
99758,AK,MINTO,65.058399,-149.691186
99759,AK,POINT LAY,69.705626,-162.906148
99760,AK,NENANA,64.557656,-149.086744
99761,AK,NOATAK,66.97553,-160.509453
99762,AK,GOLOVIN,64.505775,-165.310667
99763,AK,NOORVIK,66.836353,-161.044132
99765,AK,NULATO,64.778024,-157.991353
99766,AK,POINT HOPE,68.312058,-166.72618
99767,AK,RAMPART,65.383627,-150.011201
99768,AK,RUBY,64.720062,-155.503872
99769,AK,SAVOONGA,63.679737,-170.470908
99770,AK,SELAWIK,65.713537,-158.534287
99771,AK,SHAKTOOLIK,64.375498,-161.174589
99772,AK,SHISHMAREF,66.230562,-166.137276
99773,AK,SHUNGNAK,66.958141,-157.613496
99774,AK,STEVENS VILLAGE,65.995894,-149.118286
99777,AK,TANANA,65.156483,-152.103747
99778,AK,TELLER,65.240164,-166.3833
99780,AK,BORDER,63.435022,-142.523046
99781,AK,VENETIE,67.010446,-146.413723
99782,AK,WAINWRIGHT,70.620064,-160.012532
99783,AK,WALES,65.688212,-168.520521
99784,AK,WHITE MOUNTAIN,64.702791,-163.42185
99785,AK,BREVIG MISSION,65.334187,-166.478578
99786,AK,AMBLER,67.46951,-156.455652
99788,AK,CHALKYITSIK,66.719,-143.638121
99789,AK,NUIQSUT,70.192737,-150.997119
99801,AK,JUNEAU,58.362767,-134.529429
99820,AK,ANGOON,57.569832,-134.371052
99824,AK,DOUGLAS,58.275597,-134.395041
99826,AK,GUSTAVUS,58.42835,-135.761542
99827,AK,HAINES,59.251886,-135.542032
99829,AK,HOONAH,58.032237,-135.558435
99833,AK,PETERSBURG,56.827134,-133.160683
99835,AK,SITKA,57.051436,-135.316569
99840,AK,SKAGWAY,59.468471,-135.301794
99901,AK,KETCHIKAN,55.372028,-131.683175
99919,AK,THORNE BAY,55.66086,-132.513815
99921,AK,CRAIG,55.47317,-133.117081
99922,AK,HYDABURG,55.137406,-132.633175
99923,AK,HYDER,55.925867,-130.124915
99925,AK,KLAWOCK,55.552611,-133.055503
99926,AK,METLAKATLA,55.121491,-131.579001
99927,AK,POINT BAKER,56.307858,-133.376372
99929,AK,WRANGELL,56.433524,-132.352918
99950,AK,KETCHIKAN,55.942471,-133.18479
85003,AZ,PHOENIX,33.451095,-112.077428
85004,AZ,PHOENIX,33.455708,-112.068584
85006,AZ,PHOENIX,33.465016,-112.047357
85007,AZ,PHOENIX,33.452298,-112.089326
85008,AZ,PHOENIX,33.466457,-111.998381
85009,AZ,PHOENIX,33.456373,-112.128368
85012,AZ,PHOENIX,33.509744,-112.067816
85013,AZ,PHOENIX,33.508493,-112.082657
85014,AZ,PHOENIX,33.510263,-112.05557
85015,AZ,PHOENIX,33.508164,-112.101064
85016,AZ,PHOENIX,33.502117,-112.030496
85017,AZ,PHOENIX,33.515263,-112.121232
85018,AZ,PHOENIX,33.495796,-111.988259
85019,AZ,PHOENIX,33.512284,-112.141681
85020,AZ,PHOENIX,33.562281,-112.055888
85021,AZ,PHOENIX,33.559965,-112.092686
85022,AZ,PHOENIX,33.631513,-112.052008
85023,AZ,PHOENIX,33.632383,-112.111838
85024,AZ,PHOENIX,33.661664,-112.036956
85027,AZ,NEW RIVER STAGE,33.667157,-112.102723
85028,AZ,PHOENIX,33.585115,-112.008724
85029,AZ,PHOENIX,33.596133,-112.119913
85031,AZ,PHOENIX,33.493909,-112.16963
85032,AZ,PHOENIX,33.623807,-112.004369
85033,AZ,PHOENIX,33.494426,-112.213185
85034,AZ,PHOENIX,33.441251,-112.042135
85035,AZ,PHOENIX,33.472353,-112.183177
85037,AZ,PHOENIX,33.491278,-112.246763
85039,AZ,PHOENIX,33.495362,-112.288573
85040,AZ,PHOENIX,33.390475,-112.03126
85041,AZ,PHOENIX,33.388882,-112.095437
85043,AZ,PHOENIX,33.449056,-112.197245
85044,AZ,PHOENIX,33.329124,-111.9943
85051,AZ,PHOENIX,33.559113,-112.133168
85201,AZ,MESA,33.43174,-111.846931
85202,AZ,MESA,33.385095,-111.872429
85203,AZ,MESA,33.436952,-111.805697
85204,AZ,MESA,33.399168,-111.789554
85205,AZ,MESA,33.43685,-111.712939
85206,AZ,MESA,33.402603,-111.724223
85207,AZ,MESA,33.432073,-111.64256
85208,AZ,MESA,33.398416,-111.651297
85210,AZ,MESA,33.38867,-111.842757
85213,AZ,MESA,33.436688,-111.773114
85219,AZ,GOLD CANYON,33.360787,-111.51331
85220,AZ,APACHE JUNCTION,33.415211,-111.571818
85222,AZ,ELEVEN MILE CORN,32.892667,-111.756093
85224,AZ,CHANDLER,33.330091,-111.863156
85225,AZ,CHANDLER,33.310505,-111.823881
85226,AZ,CHANDLER,33.30917,-111.919827
85228,AZ,COOLIDGE,32.957399,-111.534378
85231,AZ,ELOY,32.750929,-111.583275
85232,AZ,FLORENCE,32.996881,-111.361234
85234,AZ,GILBERT,33.352746,-111.780876
85236,AZ,HIGLEY,33.302382,-111.696926
85237,AZ,KEARNY,33.059443,-110.91227
85239,AZ,MOBILE,32.987379,-112.075228
85240,AZ,WILLIAMS AFB,33.310289,-111.668801
85242,AZ,ARIZONA BOYS RAN,33.238577,-111.643596
85247,AZ,SACATON,33.097699,-111.775162
85248,AZ,SUN LAKES,33.223056,-111.866899
85249,AZ,CHANDLER,33.241384,-111.774486
85250,AZ,SCOTTSDALE,33.521767,-111.904926
85251,AZ,SCOTTSDALE,33.493559,-111.916697
85253,AZ,PARADISE VALLEY,33.549439,-111.956546
85254,AZ,SCOTTSDALE,33.616476,-111.955422
85255,AZ,SCOTTSDALE,33.696801,-111.889213
85256,AZ,SCOTTSDALE,33.485793,-111.85333
85257,AZ,SCOTTSDALE,33.46693,-111.915129
85258,AZ,SCOTTSDALE,33.564747,-111.893067
85259,AZ,SCOTTSDALE,33.587943,-111.840438
85260,AZ,SCOTTSDALE,33.601323,-111.88671
85262,AZ,SCOTTSDALE,33.77524,-111.779135
85264,AZ,FORT MCDOWELL,33.611807,-111.68062
85268,AZ,FOUNTAIN HILLS,33.608489,-111.723685
85272,AZ,STANFIELD,32.882321,-111.965987
85273,AZ,SUPERIOR,33.288716,-111.09846
85281,AZ,TEMPE,33.422675,-111.926144
85282,AZ,TEMPE,33.391669,-111.924896
85283,AZ,TEMPE,33.366524,-111.93122
85284,AZ,TEMPE,33.336302,-111.919696
85292,AZ,WINKELMAN,33.00572,-110.772682
85301,AZ,GLENDALE,33.531122,-112.176703
85302,AZ,GLENDALE,33.567487,-112.175289
85303,AZ,GLENDALE,33.526215,-112.214937
85304,AZ,GLENDALE,33.594289,-112.174575
85305,AZ,GLENDALE,33.529103,-112.248232
85306,AZ,GLENDALE,33.623882,-112.177563
85307,AZ,LUKE AFB,33.534879,-112.326735
85308,AZ,GLENDALE,33.653924,-112.169391
85309,AZ,LUKE AFB,33.539993,-112.356186
85310,AZ,GLENDALE,33.704726,-112.164131
85321,AZ,WHY,32.373485,-112.858681
85322,AZ,ARLINGTON,33.313317,-112.789058
85323,AZ,AVONDALE,33.432114,-112.343754
85324,AZ,ROCK SPRINGS,34.073197,-112.130956
85326,AZ,BUCKEYE,33.38896,-112.607728
85328,AZ,CIBOLA,33.614886,-114.512204
85331,AZ,CAVE CREEK,33.821896,-112.015106
85332,AZ,CONGRESS,34.176425,-112.76801
85333,AZ,DATELAND,32.867886,-113.463126
85335,AZ,EL MIRAGE,33.608153,-112.324147
85337,AZ,GILA BEND,32.93059,-112.746832
85338,AZ,GOODYEAR,33.436809,-112.383385
85339,AZ,LAVEEN,33.343572,-112.171618
85340,AZ,LITCHFIELD PARK,33.494127,-112.380497
85342,AZ,MORRISTOWN,33.772993,-112.548331
85343,AZ,PALO VERDE,33.34848,-112.646662
85344,AZ,EMPIRE LANDING,34.0254,-114.266342
85345,AZ,PEORIA,33.576135,-112.234424
85347,AZ,ROLL,32.936635,-113.564287
85348,AZ,SALOME,33.748141,-113.571459
85350,AZ,SOMERTON,32.563398,-114.7127
85351,AZ,SUN CITY,33.606104,-112.279701
85353,AZ,TOLLESON,33.434686,-112.277444
85354,AZ,TONOPAH,33.422797,-112.952785
85355,AZ,WADDELL,33.567285,-112.43869
85356,AZ,WELLTON,32.749251,-114.176616
85361,AZ,WITTMANN,33.726425,-112.446578
85362,AZ,YARNELL,34.414076,-112.62166
85363,AZ,YOUNGTOWN,33.590751,-112.301305
85364,AZ,YUMA,32.701507,-114.642362
85365,AZ,YUMA PROVING GRO,32.671352,-114.548633
85373,AZ,SUN CITY,33.658756,-112.321397
85374,AZ,SURPRISE,33.630028,-112.33143
85375,AZ,SUN CITY WEST,33.662576,-112.255434
85381,AZ,PEORIA,33.604761,-112.223723
85382,AZ,PEORIA,33.63083,-112.207177
85390,AZ,WICKENBURG,33.911282,-112.738973
85501,AZ,GLOBE,33.402426,-110.789247
85530,AZ,BYLAS,33.126549,-110.11702
85533,AZ,CLIFTON,33.132343,-109.246199
85534,AZ,FRANKLIN,32.793976,-109.129575
85535,AZ,EDEN,33.028629,-109.953682
85539,AZ,MIAMI,33.431928,-110.881182
85540,AZ,MORENCI,33.043593,-109.311517
85541,AZ,PAYSON,34.219779,-111.287774
85542,AZ,PERIDOT,33.478874,-110.37252
85543,AZ,PIMA,32.909661,-109.856009
85544,AZ,STRAWBERRY,34.390915,-111.473483
85545,AZ,ROOSEVELT,33.635753,-110.974884
85546,AZ,SAFFORD,32.829491,-109.626641
85550,AZ,SAN CARLOS,33.310643,-110.395323
85552,AZ,THATCHER,32.819902,-109.730245
85602,AZ,BENSON,31.98826,-110.294113
85603,AZ,BISBEE,31.408557,-109.911736
85606,AZ,COCHISE,32.097891,-109.92393
85607,AZ,DOUGLAS,31.35111,-109.544698
85610,AZ,ELFRIDA,31.713891,-109.619277
85611,AZ,ELGIN,31.66002,-110.611403
85613,AZ,FORT HUACHUCA,31.558735,-110.344131
85614,AZ,GREEN VALLEY,31.854271,-111.000253
85615,AZ,HEREFORD,31.403545,-110.204728
85616,AZ,HUACHUCA CITY,31.663896,-110.333414
85617,AZ,MC NEAL,31.502969,-109.630971
85618,AZ,MAMMOTH,32.723875,-110.643961
85621,AZ,NOGALES,31.376969,-110.943508
85623,AZ,ORACLE,32.600506,-110.796126
85624,AZ,PATAGONIA,31.535317,-110.696774
85625,AZ,PEARCE,31.966608,-109.795032
85629,AZ,SAHUARITA,31.945169,-111.000154
85630,AZ,SAINT DAVID,31.897251,-110.215377
85631,AZ,SAN MANUEL,32.695831,-110.656788
85632,AZ,PORTAL,32.208167,-109.367152
85634,AZ,PISINEMO,32.031572,-111.922207
85635,AZ,SIERRA VISTA,31.536467,-110.266565
85637,AZ,SONOITA,31.866154,-110.724418
85638,AZ,TOMBSTONE,31.721598,-110.058449
85640,AZ,AMADO,31.594194,-111.039693
85641,AZ,VAIL,32.035926,-110.88375
85643,AZ,WILLCOX,32.372977,-109.863111
85645,AZ,AMADO,31.643759,-111.072233
85653,AZ,MARANA,32.404749,-111.273621
85701,AZ,TUCSON,32.213873,-110.969445
85704,AZ,CASAS ADOBES,32.329175,-110.984593
85705,AZ,TUCSON,32.269088,-110.984536
85706,AZ,TUCSON,32.139172,-110.945127
85708,AZ,TUCSON,32.179989,-110.869283
85710,AZ,TUCSON,32.213813,-110.824046
85711,AZ,TUCSON,32.212729,-110.882892
85712,AZ,TUCSON,32.250043,-110.886919
85713,AZ,TUCSON,32.194065,-110.973896
85714,AZ,TUCSON,32.170657,-110.971891
85715,AZ,TUCSON,32.269213,-110.834837
85716,AZ,TUCSON,32.246815,-110.922176
85718,AZ,TUCSON,32.311154,-110.917882
85719,AZ,TUCSON,32.247426,-110.949142
85730,AZ,TUCSON,32.180951,-110.81904
85735,AZ,TUCSON,32.057796,-111.260758
85736,AZ,TUCSON,31.667909,-111.317842
85737,AZ,ORO VALLEY,32.431679,-110.954463
85741,AZ,TUCSON,32.347215,-111.041873
85743,AZ,TUCSON,32.33655,-111.177071
85745,AZ,TUCSON,32.243359,-111.017907
85746,AZ,TUCSON,32.142244,-111.050569
85747,AZ,TUCSON,32.071142,-110.667337
85748,AZ,TUCSON,32.214981,-110.775765
85749,AZ,TUCSON,32.273285,-110.765829
85901,AZ,SHOW LOW,34.060117,-110.054633
85920,AZ,ALPINE,33.827878,-109.12829
85922,AZ,BLUE,33.651245,-109.06849
85924,AZ,CONCHO,34.445787,-109.674096
85925,AZ,EAGAR,33.954571,-109.246933
85928,AZ,HEBER,34.4163,-110.568647
85929,AZ,LAKESIDE,34.166224,-109.986878
85935,AZ,PINETOP,34.117459,-109.919668
85936,AZ,SAINT JOHNS,34.501008,-109.379617
85937,AZ,SNOWFLAKE,34.495859,-110.080742
85938,AZ,SPRINGERVILLE,34.119333,-109.304066
86001,AZ,FLAGSTAFF,35.185911,-111.661979
86004,AZ,FLAGSTAFF,35.225736,-111.574109
86021,AZ,COLORADO CITY,36.976266,-112.952427
86022,AZ,FREDONIA,36.904397,-112.497864
86025,AZ,HOLBROOK,34.908451,-110.143412
86030,AZ,HOTEVILLA,36.211141,-110.566107
86033,AZ,KAYENTA,36.688327,-110.265229
86034,AZ,KEAMS CANYON,35.808206,-110.284461
86035,AZ,LEUPP,35.336528,-110.992651
86036,AZ,MARBLE CANYON,36.956943,-111.558166
86038,AZ,MORMON LAKE,34.916896,-111.454914
86039,AZ,KYKOTSMOVI VILLA,35.579084,-110.368805
86040,AZ,GREENEHAVEN,36.896625,-111.43847
86042,AZ,POLACCA,35.811812,-110.51114
86043,AZ,SECOND MESA,35.903782,-110.6472
86044,AZ,TONALEA,35.934555,-110.882042
86045,AZ,TUBA CITY,36.103729,-111.268566
86046,AZ,WILLIAMS,35.543398,-112.17075
86047,AZ,WINSLOW,35.16078,-110.511382
86053,AZ,KAIBITO,36.484798,-111.136973
86054,AZ,SHONTO,36.61594,-110.647743
86301,AZ,PRESCOTT,34.629909,-113.022459
86303,AZ,GROOM CREEK,34.558577,-112.473459
86314,AZ,PRESCOTT VALLEY,34.601934,-112.326378
86320,AZ,ASH FORK,35.214998,-112.502681
86321,AZ,BAGDAD,34.578484,-113.175535
86322,AZ,CAMP VERDE,34.569733,-111.855131
86323,AZ,CHINO VALLEY,34.775739,-112.473099
86324,AZ,CLARKDALE,34.747793,-112.033417
86325,AZ,CORNVILLE,34.725593,-111.908556
86326,AZ,COTTONWOOD,34.705547,-112.009099
86327,AZ,DEWEY,34.536753,-112.256665
86332,AZ,KIRKLAND,34.454149,-112.896641
86333,AZ,MAYER,34.365535,-112.129551
86334,AZ,PAULDEN,35.03129,-112.544105
86335,AZ,RIMROCK,34.63799,-111.784222
86336,AZ,SEDONA,34.826645,-111.750627
86337,AZ,SELIGMAN,35.321246,-112.954805
86343,AZ,CROWN KING,34.224062,-112.333971
86401,AZ,KINGMAN,35.258379,-114.05689
86403,AZ,DESERT HILLS,34.492879,-114.308083
86412,AZ,HUALAPAI,35.540732,-113.295324
86430,AZ,BULLHEAD CITY,35.014832,-114.588816
86432,AZ,LITTLEFIELD,36.866524,-113.913693
86434,AZ,PEACH SPRINGS,35.537795,-113.420199
86435,AZ,SUPAI,36.224157,-112.693212
86436,AZ,TOPOCK,34.778388,-114.481666
86440,AZ,MOHAVE VALLEY,34.892942,-114.595115
86441,AZ,DOLAN SPRINGS,35.774789,-114.547771
86442,AZ,BULLHEAD CITY,35.106001,-114.594737
86444,AZ,MEADVIEW,35.813733,-114.327696
86502,AZ,CHAMBERS,35.143044,-109.37389
86503,AZ,CHINLE,36.130367,-109.603693
86505,AZ,GANADO,35.651844,-109.283168
86507,AZ,LUKACHUKAI,36.418111,-109.244614
86509,AZ,NAVAJO,34.817202,-109.396217
86510,AZ,PINON,36.100243,-110.221077
86514,AZ,TEEC NOS POS,36.779694,-109.359039
86535,AZ,DENNEHOTSO,36.777286,-109.861001
86538,AZ,MANY FARMS,36.408259,-109.634021
86556,AZ,TSAILE,36.307075,-109.217627
71601,AR,NORTH CEDAR,34.215405,-91.995812
71602,AR,DOLLARWAY,34.257001,-92.089718
71603,AR,PINE BLUFF,34.189745,-92.044786
71630,AR,ARKANSAS CITY,33.614328,-91.232529
71631,AR,BANKS,33.549665,-92.260386
71635,AR,NORTH,33.152369,-91.959152
71638,AR,DERMOTT,33.524054,-91.439391
71639,AR,DUMAS,33.892102,-91.486056
71640,AR,EUDORA,33.12135,-91.271552
71642,AR,FOUNTAIN HILL,33.342951,-91.835627
71643,AR,GOULD,34.034503,-91.576798
71644,AR,TAMO,34.030484,-91.67082
71646,AR,HAMBURG,33.2058,-91.802265
71647,AR,INGALLS,33.422207,-92.127714
71651,AR,JERSEY,33.388914,-92.296613
71652,AR,KINGSLAND,33.86002,-92.301415
71653,AR,LAKE VILLAGE,33.327408,-91.282487
71654,AR,MC GEHEE,33.62971,-91.392781
71655,AR,MONTICELLO,33.624951,-91.794845
71658,AR,MONTROSE,33.307516,-91.522776
71660,AR,NEW EDINBURG,33.758846,-92.193909
71661,AR,PARKDALE,33.121267,-91.542793
71662,AR,PICKENS,33.807923,-91.39157
71663,AR,PORTLAND,33.231773,-91.513935
71665,AR,RISON,33.945325,-92.118762
71666,AR,ROHWER,33.616003,-91.205124
71667,AR,STAR CITY,33.940528,-91.865343
71670,AR,REED,33.67479,-91.520287
71671,AR,WARREN,33.613983,-92.077824
71674,AR,WATSON,33.890737,-91.281455
71675,AR,WILMAR,33.621296,-91.925697
71676,AR,WILMOT,33.057557,-91.572283
71677,AR,WINCHESTER,33.752039,-91.543059
71678,AR,YORKTOWN,34.017166,-91.796472
71701,AR,EAST CAMDEN,33.575866,-92.833386
71720,AR,BEARDEN,33.729797,-92.61802
71722,AR,BLUFF CITY,33.698191,-93.186811
71725,AR,CARTHAGE,34.063625,-92.62623
71726,AR,READER,33.700148,-93.018716
71730,AR,EL DORADO,33.20735,-92.662856
71740,AR,EMERSON,33.089054,-93.198699
71742,AR,FORDYCE,33.817648,-92.422475
71743,AR,GURDON,33.912493,-93.141691
71744,AR,HAMPTON,33.537613,-92.52951
71745,AR,HARRELL,33.510865,-92.391243
71747,AR,HUTTIG,33.045888,-92.194153
71748,AR,IVAN,33.902984,-92.439406
71749,AR,JUNCTION CITY,33.043965,-92.684254
71751,AR,LOUANN,33.411744,-92.782759
71752,AR,MC NEIL,33.36222,-93.193006
71753,AR,MAGNOLIA,33.264678,-93.239153
71758,AR,MOUNT HOLLY,33.308534,-92.944265
71759,AR,NORPHLET,33.309619,-92.657619
71762,AR,SMACKOVER,33.339831,-92.74425
71763,AR,MANNING,33.902989,-92.810984
71764,AR,STEPHENS,33.455044,-93.021391
71765,AR,STRONG,33.119526,-92.362104
71766,AR,THORNTON,33.767694,-92.468299
71767,AR,TINSMAN,33.643436,-92.382192
71769,AR,VILLAGE,33.281849,-93.046404
71770,AR,WALDO,33.360017,-93.294915
71801,AR,PERRYTOWN,33.656645,-93.590305
71822,AR,ASHDOWN,33.678711,-94.135102
71825,AR,BLEVINS,33.875468,-93.536035
71826,AR,BRADLEY,33.106963,-93.627496
71827,AR,BUCKNER,33.375323,-93.446998
71828,AR,CALE,33.616403,-93.26497
71831,AR,COLUMBUS,33.745108,-93.85588
71832,AR,DE QUEEN,34.044206,-94.338559
71833,AR,DIERKS,34.13232,-94.015243
71834,AR,DODDRIDGE,33.105448,-93.954307
71835,AR,EMMET,33.692896,-93.423242
71836,AR,FOREMAN,33.71759,-94.388108
71837,AR,FOUKE,33.302476,-93.900953
71838,AR,FULTON,33.629876,-93.808562
71839,AR,GARLAND CITY,33.335161,-93.731624
71841,AR,GILLHAM,34.157003,-94.316497
71842,AR,HORATIO,33.939221,-94.295942
71845,AR,LEWISVILLE,33.373603,-93.595258
71846,AR,LOCKESBURG,33.930553,-94.127588
71847,AR,MC CASKILL,33.923042,-93.626605
71851,AR,MINERAL SPRINGS,33.863852,-93.918828
71852,AR,NASHVILLE,33.957646,-93.870709
71853,AR,OGDEN,33.585706,-94.027826
71855,AR,OZAN,33.902775,-93.771443
71857,AR,PRESCOTT,33.804029,-93.372544
71858,AR,ROSSTON,33.561693,-93.303891
71859,AR,SARATOGA,33.759883,-93.876723
71860,AR,STAMPS,33.356877,-93.501307
71861,AR,TAYLOR,33.107957,-93.446019
71862,AR,WASHINGTON,33.754596,-93.673529
71864,AR,WILLISVILLE,33.484731,-93.31212
71865,AR,WILTON,33.734794,-94.135746
71866,AR,WINTHROP,33.858321,-94.395174
71901,AR,LAKE CATHERINE,34.501475,-93.026024
71909,AR,HOT SPRINGS VILL,34.65862,-93.006386
71913,AR,LAKE HAMILTON,34.473304,-93.109177
71921,AR,AMITY,34.259362,-93.420551
71922,AR,ANTOINE,34.028296,-93.437169
71923,AR,ARKADELPHIA,34.11525,-93.068989
71929,AR,BISMARCK,34.311033,-93.187236
71931,AR,BLAKELY,34.703957,-93.063509
71933,AR,BONNERDALE,34.349751,-93.319415
71935,AR,CADDO GAP,34.397579,-93.586376
71937,AR,COVE,34.419159,-94.39234
71940,AR,DELIGHT,34.023772,-93.524666
71941,AR,DONALDSON,34.221221,-92.909384
71942,AR,FRIENDSHIP,34.241225,-92.980393
71943,AR,GLENWOOD,34.319207,-93.555881
71944,AR,GRANNIS,34.237021,-94.3255
71945,AR,HATFIELD,34.487703,-94.371397
71949,AR,JESSIEVILLE,34.693729,-93.196318
71950,AR,KIRBY,34.255153,-93.616716
71952,AR,LANGLEY,34.314035,-93.850942
71953,AR,MENA,34.581435,-94.220984
71956,AR,BUCKVILLE,34.577182,-93.160041
71957,AR,MOUNT IDA,34.561194,-93.574904
71958,AR,MURFREESBORO,34.101734,-93.710903
71959,AR,NEWHOPE,34.227347,-93.890487
71960,AR,NORMAN,34.459633,-93.674304
71961,AR,ODEN,34.611292,-93.821103
71962,AR,OKOLONA,34.055138,-93.289679
71964,AR,PEARCY,34.435092,-93.242015
71965,AR,PENCIL BLUFF,34.639946,-93.742947
71968,AR,ROYAL,34.515049,-93.289734
71969,AR,SIMS,34.646181,-93.674071
71970,AR,STORY,34.668695,-93.537587
71971,AR,UMPIRE,34.292129,-94.031377
71972,AR,VANDERVOORT,34.379535,-94.369788
71973,AR,WICKES,34.308806,-94.340257
72001,AR,ADONA,35.046956,-92.903325
72002,AR,ALEXANDER,34.631266,-92.472673
72003,AR,ALMYRA,34.41459,-91.430992
72004,AR,ALTHEIMER,34.306168,-91.828916
72005,AR,AMAGON,35.561559,-91.079636
72006,AR,AUGUSTA,35.278806,-91.352653
72007,AR,AUSTIN,35.028369,-91.959398
72010,AR,BALD KNOB,35.311331,-91.550197
72011,AR,BAUXITE,34.545537,-92.360531
72012,AR,BEEBE,35.093743,-91.907449
72013,AR,BEE BRANCH,35.423367,-92.408523
72014,AR,BEEDEVILLE,35.420267,-91.106371
72015,AR,BENTON,34.580087,-92.595241
72016,AR,BIGELOW,34.984659,-92.630842
72017,AR,BISCOE,34.833706,-91.490028
72020,AR,BRADFORD,35.427655,-91.518973
72021,AR,BRINKLEY,34.878124,-91.188596
72022,AR,BRYANT,34.606786,-92.492015
72023,AR,CABOT,34.945724,-92.031771
72024,AR,CARLISLE,34.793291,-91.745929
72025,AR,CASA,35.032168,-93.047005
72026,AR,CASSCOE,34.473625,-91.324798
72027,AR,CENTER RIDGE,35.398063,-92.558167
72028,AR,CHOCTAW,35.523528,-92.426412
72029,AR,CLARENDON,34.660138,-91.256426
72030,AR,CLEVELAND,35.358328,-92.712821
72031,AR,CLINTON,35.604537,-92.475825
72032,AR,CONWAY,35.084199,-92.423574
72036,AR,COTTON PLANT,35.017827,-91.229043
72038,AR,CROCKETTS BLUFF,34.425272,-91.232079
72039,AR,TWIN GROVES,35.291042,-92.432952
72040,AR,DES ARC,34.97507,-91.511342
72041,AR,DE VALLS BLUFF,34.744704,-91.498218
72042,AR,DE WITT,34.285312,-91.333627
72044,AR,EDGEMONT,35.623006,-92.199471
72045,AR,EL PASO,35.114176,-92.090076
72046,AR,ENGLAND,34.557458,-91.948422
72047,AR,ENOLA,35.208705,-92.212328
72048,AR,ETHEL,34.243525,-91.139839
72051,AR,FOX,35.768208,-92.304266
72052,AR,GARNER,35.130305,-91.742884
72055,AR,GILLETT,34.121838,-91.380048
72057,AR,GRAPEVINE,34.130893,-92.310944
72058,AR,GREENBRIER,35.229547,-92.357792
72060,AR,GRIFFITHVILLE,35.114383,-91.624234
72061,AR,GUY,35.318487,-92.331539
72063,AR,HATTIEVILLE,35.290713,-92.778317
72064,AR,HAZEN,34.783833,-91.576699
72065,AR,HENSLEY,34.591133,-92.214019
72066,AR,HICKORY PLAINS,34.978642,-91.750844
72067,AR,GREERS FERRY,35.549812,-92.182284
72068,AR,HIGGINSON,35.188254,-91.71828
72069,AR,HOLLY GROVE,34.599294,-91.184376
72070,AR,HOUSTON,35.036209,-92.691319
72072,AR,HUMNOKE,34.541896,-91.756616
72073,AR,HUMPHREY,34.403387,-91.67896
72076,AR,GRAVEL RIDGE,34.881985,-92.130435
72079,AR,JEFFERSON,34.355285,-92.148574
72080,AR,JERUSALEM,35.37975,-92.813886
72081,AR,JUDSONIA,35.324954,-91.649087
72082,AR,KENSETT,35.229939,-91.669672
72083,AR,KEO,34.604072,-92.007844
72084,AR,LEOLA,34.185605,-92.597865
72086,AR,LONOKE,34.783162,-91.921367
72087,AR,LONSDALE,34.556203,-92.834034
72101,AR,MC CRORY,35.247292,-91.179327
72102,AR,MC RAE,35.11322,-91.821551
72103,AR,SHANNON HILLS,34.621756,-92.384618
72104,AR,MALVERN,34.355715,-92.829162
72105,AR,JONES MILLS,34.453624,-92.861975
72106,AR,MAYFLOWER,34.966853,-92.400102
72110,AR,MORRILTON,35.169227,-92.735436
72111,AR,MOUNT VERNON,35.260613,-92.137334
72112,AR,NEWPORT,35.598823,-91.257064
72113,AR,MAUMELLE,34.849085,-92.405892
72114,AR,NORTH LITTLE ROC,34.766974,-92.265376
72116,AR,SHERWOOD,34.807629,-92.237359
72117,AR,NORTH LITTLE ROC,34.776305,-92.194604
72118,AR,CAMP JOSEPH T RO,34.821598,-92.307875
72120,AR,NORTH LITTLE ROC,34.859292,-92.214169
72121,AR,PANGBURN,35.421583,-91.795971
72122,AR,PARON,34.785289,-92.748176
72125,AR,PERRY,35.042732,-92.787976
72126,AR,PERRYVILLE,34.970096,-92.847171
72127,AR,PLUMERVILLE,35.157466,-92.620435
72128,AR,POYEN,34.350828,-92.599037
72129,AR,PRATTSVILLE,34.307865,-92.513105
72130,AR,PRIM,35.685733,-92.134596
72131,AR,QUITMAN,35.404988,-92.133334
72132,AR,REDFIELD,34.452647,-92.17579
72133,AR,REYDELL,34.143281,-91.550395
72134,AR,ROE,34.628592,-91.377058
72135,AR,ROLAND,34.88287,-92.519152
72136,AR,ROMANCE,35.215462,-92.06985
72137,AR,ROSE BUD,35.321447,-92.061988
72140,AR,SAINT CHARLES,34.335296,-91.16808
72141,AR,SCOTLAND,35.507956,-92.586652
72142,AR,SCOTT,34.694215,-92.11566
72143,AR,GEORGETOWN,35.253512,-91.762931
72150,AR,SHERIDAN,34.316527,-92.365713
72152,AR,SHERRILL,34.358148,-91.993285
72153,AR,SHIRLEY,35.573259,-92.29751
72156,AR,SOLGOHACHIA,35.270056,-92.675387
72157,AR,SPRINGFIELD,35.274879,-92.54567
72160,AR,STUTTGART,34.485358,-91.548742
72165,AR,THIDA,35.553556,-91.461823
72166,AR,TICHNOR,34.089311,-91.243684
72167,AR,TRASKWOOD,34.450791,-92.654734
72168,AR,TUCKER,34.441442,-91.916265
72170,AR,ULM,34.579938,-91.51343
72173,AR,VILONIA,35.071895,-92.183235
72175,AR,WABBASEKA,34.393552,-91.754948
72176,AR,WARD,34.95316,-91.900383
72179,AR,WILBURN,35.454547,-91.907248
72181,AR,WOOSTER,35.197308,-92.450998
72182,AR,WRIGHT,34.437656,-92.06308
72201,AR,LITTLE ROCK,34.748342,-92.281939
72202,AR,LITTLE ROCK,34.736322,-92.274067
72204,AR,LITTLE ROCK,34.726904,-92.344041
72205,AR,LITTLE ROCK,34.750971,-92.345512
72206,AR,LITTLE ROCK,34.683599,-92.277606
72207,AR,LITTLE ROCK,34.772121,-92.356481
72208,AR,FERNDALE,34.781575,-92.585581
72209,AR,LITTLE ROCK,34.672509,-92.352919
72210,AR,LITTLE ROCK,34.707625,-92.465981
72211,AR,LITTLE ROCK,34.758819,-92.431485
72212,AR,LITTLE ROCK,34.787076,-92.422232
72301,AR,WEST MEMPHIS,35.148442,-90.17792
72310,AR,ARMOREL,35.942843,-89.758118
72311,AR,AUBREY,34.702727,-90.911331
72313,AR,BASSETT,35.513808,-90.192155
72314,AR,BIRDEYE,35.409571,-90.67074
72315,AR,BLYTHEVILLE A F,35.934482,-89.922497
72320,AR,BRICKEYS,34.854814,-90.537738
72321,AR,BURDETTE,35.814769,-89.942312
72324,AR,CHERRY VALLEY,35.399122,-90.761329
72326,AR,COLT,35.096062,-90.787204
72327,AR,CRAWFORDSVILLE,35.211873,-90.335107
72328,AR,CRUMROD,34.216167,-90.949535
72329,AR,DRIVER,35.559714,-89.960526
72330,AR,DYESS,35.595394,-90.215716
72331,AR,EARLE,35.27989,-90.450261
72332,AR,EDMONDSON,35.022309,-90.328672
72333,AR,ELAINE,34.308668,-90.873485
72335,AR,FORREST CITY,35.009129,-90.788572
72338,AR,FRENCHMANS BAYOU,35.478419,-90.055933
72339,AR,GILMORE,35.386408,-90.264664
72340,AR,GOODWIN,34.959149,-90.983518
72341,AR,HAYNES,34.883752,-90.766621
72342,AR,HELENA,34.532491,-90.629784
72346,AR,HETH,35.097335,-90.458554
72347,AR,HICKORY RIDGE,35.399457,-90.982283
72348,AR,HUGHES,34.945416,-90.474142
72350,AR,JOINER,35.505239,-90.14779
72351,AR,KEISER,35.678626,-90.096171
72354,AR,LEPANTO,35.606909,-90.335883
72355,AR,LEXA,34.672694,-90.78532
72358,AR,LUXORA,35.760786,-89.92204
72360,AR,MARIANNA,34.775929,-90.77852
72364,AR,MARION,35.2077,-90.198908
72365,AR,MARKED TREE,35.534933,-90.419387
72366,AR,MARVELL,34.548541,-90.941322
72367,AR,MELLWOOD,34.220032,-91.008589
72368,AR,MORO,34.802953,-91.006026
72369,AR,ONEIDA,34.405267,-90.826045
72370,AR,OSCEOLA,35.701864,-89.979764
72372,AR,PALESTINE,34.966346,-90.904929
72373,AR,PARKIN,35.258557,-90.556417
72374,AR,POPLAR GROVE,34.539397,-90.881274
72376,AR,PROCTOR,35.083396,-90.255026
72379,AR,SNOW LAKE,34.066466,-91.007083
72381,AR,TOMATO,35.806666,-89.787092
72384,AR,TURRELL,35.296936,-90.262979
72386,AR,TYRONZA,35.486477,-90.351944
72390,AR,WEST HELENA,34.549635,-90.654531
72392,AR,WHEATLEY,34.920703,-91.108645
72394,AR,WIDENER,35.059167,-90.629313
72395,AR,WILSON,35.566004,-90.042749
72396,AR,WYNNE,35.233036,-90.79303
72397,AR,FAIR OAKS,35.236817,-91.014304
72401,AR,JONESBORO,35.833016,-90.696526
72410,AR,ALICIA,35.942327,-91.081003
72411,AR,BAY,35.74559,-90.550658
72412,AR,BEECH GROVE,36.183172,-90.618084
72413,AR,BIGGERS,36.342978,-90.784467
72414,AR,BLACK OAK,35.835851,-90.354227
72415,AR,BLACK ROCK,36.114874,-91.117629
72416,AR,BONO,35.908592,-90.784753
72417,AR,BROOKLAND,35.91647,-90.576228
72419,AR,CARAWAY,35.758951,-90.335797
72421,AR,CASH,35.830145,-90.941007
72422,AR,CORNING,36.415532,-90.58702
72424,AR,DATTO,36.389685,-90.723117
72425,AR,DELAPLAINE,36.199485,-90.734482
72426,AR,DELL,35.850118,-90.035449
72428,AR,ETOWAH,35.714707,-90.218172
72429,AR,FISHER,35.513956,-90.955001
72430,AR,GREENWAY,36.334766,-90.225257
72432,AR,HARRISBURG,35.572222,-90.703752
72433,AR,HOXIE,36.032573,-90.971504
72434,AR,IMBODEN,36.19763,-91.185442
72435,AR,KNOBEL,36.317647,-90.599048
72436,AR,LAFE,36.21547,-90.506973
72437,AR,LAKE CITY,35.81715,-90.442327
72438,AR,LEACHVILLE,35.933216,-90.195488
72440,AR,LYNN,36.016639,-91.254588
72441,AR,MC DOUGAL,36.379909,-90.394093
72442,AR,ROSELAND,35.874885,-90.180252
72443,AR,MARMADUKE,36.195117,-90.38368
72444,AR,MAYNARD,36.438563,-90.874921
72445,AR,MINTURN,35.976096,-91.033704
72447,AR,MONETTE,35.900168,-90.343658
72449,AR,O KEAN,36.179672,-90.824069
72450,AR,PARAGOULD,36.060033,-90.525093
72453,AR,PEACH ORCHARD,36.283045,-90.670217
72454,AR,PIGGOTT,36.386993,-90.19261
72455,AR,POCAHONTAS,36.282876,-90.996782
72456,AR,POLLARD,36.431725,-90.275123
72457,AR,PORTIA,36.080699,-91.068004
72458,AR,POWHATAN,36.080044,-91.148214
72459,AR,RAVENDEN,36.202863,-91.25934
72460,AR,RAVENDEN SPRINGS,36.310384,-91.209433
72461,AR,RECTOR,36.267177,-90.270201
72464,AR,SAINT FRANCIS,36.454771,-90.144991
72465,AR,SEDGWICK,35.985965,-90.880099
72466,AR,SMITHVILLE,36.090815,-91.274456
72467,AR,STATE UNIVERSITY,35.914894,-90.454245
72469,AR,CALAMINE,35.972622,-91.375398
72470,AR,SUCCESS,36.453615,-90.728128
72471,AR,SWIFTON,35.827366,-91.126358
72472,AR,PAYNEWAY,35.668914,-90.518738
72473,AR,TUCKERMAN,35.730678,-91.200347
72476,AR,COLLEGE CITY,36.077814,-90.952809
72478,AR,WARM SPRINGS,36.467531,-91.038707
72479,AR,WEINER,35.629052,-90.928928
72482,AR,WILLIFORD,36.245335,-91.379226
72501,AR,BATESVILLE,35.782614,-91.63519
72512,AR,HORSESHOE BEND,36.202502,-91.755334
72513,AR,AGNOS,36.219732,-91.610746
72515,AR,BEXAR,36.306103,-91.985998
72516,AR,BOSWELL,36.01084,-92.044307
72517,AR,BROCKWELL,36.135755,-91.951308
72519,AR,JORDAN,36.144771,-92.145494
72520,AR,CAMP,36.402531,-91.726166
72521,AR,CAVE CITY,35.951684,-91.544432
72522,AR,CHARLOTTE,35.833393,-91.396217
72523,AR,CONCORD,35.641355,-91.833339
72524,AR,CORD,35.81844,-91.337455
72526,AR,CUSHMAN,35.869663,-91.776455
72527,AR,DESHA,35.731524,-91.678287
72528,AR,DOLPH,36.222878,-92.11766
72529,AR,CHEROKEE VILLAGE,36.30114,-91.528075
72530,AR,DRASCO,35.661606,-91.939818
72531,AR,ELIZABETH,36.323776,-92.093366
72532,AR,EVENING SHADE,36.085532,-91.598014
72533,AR,FIFTY SIX,35.991958,-92.218169
72534,AR,FLORAL,35.602337,-91.734101
72536,AR,FRANKLIN,36.129093,-91.809592
72537,AR,GAMALIEL,36.461794,-92.228447
72538,AR,GEPP,36.436443,-92.099507
72539,AR,GLENCOE,36.288962,-91.769483
72540,AR,GUION,35.960135,-91.934287
72542,AR,HARDY,36.322746,-91.411027
72543,AR,HEBER SPRINGS,35.510278,-92.039211
72544,AR,HENDERSON,36.356829,-92.269253
72546,AR,IDA,35.594326,-91.930081
72550,AR,LOCUST GROVE,35.717705,-91.741443
72553,AR,MAGNESS,35.710062,-91.485041
72554,AR,MAMMOTH SPRING,36.407648,-91.575712
72555,AR,MARCELLA,35.749654,-91.941891
72556,AR,ZION,36.059958,-91.905196
72557,AR,MOKO,36.468902,-91.858663
72560,AR,HANOVER,35.865769,-92.114762
72561,AR,MOUNT PLEASANT,35.975909,-91.785013
72562,AR,NEWARK,35.71183,-91.439395
72564,AR,OIL TROUGH,35.613147,-91.470305
72565,AR,OXFORD,36.211408,-91.925849
72566,AR,PINEVILLE,36.167704,-92.107299
72567,AR,PLEASANT GROVE,35.842349,-91.931905
72568,AR,PLEASANT PLAINS,35.589301,-91.632043
72569,AR,POUGHKEEPSIE,36.071526,-91.451575
72571,AR,ROSIE,35.663816,-91.534003
72572,AR,SAFFELL,35.917957,-91.297753
72573,AR,SAGE,36.042476,-91.824569
72575,AR,SALADO,35.703493,-91.597924
72576,AR,BYRON,36.365401,-91.836321
72577,AR,SIDNEY,35.991554,-91.634593
72578,AR,STURKIE,36.463869,-91.989917
72579,AR,SULPHUR ROCK,35.754466,-91.507333
72581,AR,TUMBLING SHOALS,35.546985,-91.970359
72583,AR,VIOLA,36.392429,-91.993198
72584,AR,VIOLET HILL,36.162966,-91.847064
72585,AR,WIDEMAN,36.198739,-92.001796
72587,AR,WISEMAN,36.228022,-91.849499
72601,AR,HARRISON,36.241707,-93.106162
72610,AR,ALCO,35.894511,-92.380753
72611,AR,ALPENA,36.299768,-93.2792
72612,AR,BASS,35.892225,-92.999832
72616,AR,BERRYVILLE,36.351908,-93.558725
72617,AR,BIG FLAT,36.006824,-92.391681
72618,AR,BRUNO,36.124617,-92.763651
72619,AR,BULL SHOALS,36.370958,-92.593765
72623,AR,CLARKRIDGE,36.443311,-92.35159
72624,AR,COMPTON,36.097941,-93.309903
72626,AR,COTTER,36.280378,-92.532787
72628,AR,DEER,35.852982,-93.317388
72629,AR,DENNARD,35.725236,-92.557456
72632,AR,EUREKA SPRINGS,36.417465,-93.737915
72633,AR,EVERTON,36.153366,-92.914989
72634,AR,FLIPPIN,36.268219,-92.577995
72635,AR,GASSVILLE,36.317525,-92.473637
72638,AR,GREEN FOREST,36.322408,-93.405875
72639,AR,HARRIET,35.974187,-92.50055
72640,AR,HASTY,36.015229,-93.045966
72641,AR,JASPER,36.003798,-93.204771
72642,AR,LAKEVIEW,36.397308,-92.504416
72644,AR,LEAD HILL,36.430886,-92.930194
72645,AR,LESLIE,35.82716,-92.566293
72648,AR,DOGPATCH,36.095121,-93.144822
72650,AR,MARSHALL,35.926697,-92.640203
72651,AR,MIDWAY,36.290454,-92.431398
72653,AR,MOUNTAIN HOME,36.331153,-92.375337
72655,AR,MOUNT JUDEA,35.834674,-93.082391
72657,AR,TIMBO,35.896338,-92.252536
72658,AR,NORFORK,36.206571,-92.273011
72660,AR,OAK GROVE,36.461347,-93.432129
72661,AR,OAKLAND,36.444227,-92.583187
72662,AR,OMAHA,36.46123,-93.188753
72663,AR,ONIA,35.940339,-92.345859
72666,AR,PARTHENON,35.940836,-93.267776
72668,AR,PEEL,36.444374,-92.776143
72669,AR,PINDALL,36.067479,-92.886409
72670,AR,PONCA,36.066225,-93.401985
72675,AR,SAINT JOE,35.987707,-92.792828
72679,AR,TILLY,35.6976,-92.844209
72680,AR,NEWNATA,35.855318,-92.337929
72682,AR,VALLEY SPRINGS,36.146823,-92.979937
72683,AR,VENDOR,35.948062,-93.100815
72685,AR,WESTERN GROVE,36.082994,-92.971649
72686,AR,WITTS SPRINGS,35.785514,-92.815518
72687,AR,YELLVILLE,36.225322,-92.724472
72701,AR,FAYETTEVILLE,36.052045,-94.153395
72703,AR,FAYETTEVILLE,36.099183,-94.17163
72712,AR,BENTONVILLE,36.357703,-94.22242
72714,AR,BELLA VISTA,36.465086,-94.251969
72716,AR,WAL-MART INC,36.326554,-94.181483
72717,AR,CANEHILL,35.910992,-94.3862
72718,AR,CAVE SPRINGS,36.266771,-94.207836
72719,AR,CENTERTON,36.366993,-94.30891
72721,AR,COMBS,35.848297,-93.825218
72722,AR,DECATUR,36.334749,-94.453411
72727,AR,ELKINS,36.017719,-94.007323
72729,AR,EVANSVILLE,35.819345,-94.478936
72730,AR,FARMINGTON,36.043635,-94.253871
72732,AR,GARFIELD,36.428817,-93.951197
72733,AR,GATEWAY,36.485751,-93.935016
72734,AR,GENTRY,36.26516,-94.475131
72735,AR,GOSHEN,36.107523,-93.987262
72736,AR,GRAVETTE,36.415513,-94.477862
72738,AR,HINDSVILLE,36.142206,-93.863339
72739,AR,HIWASSE,36.441589,-94.338993
72740,AR,HUNTSVILLE,36.104348,-93.727893
72742,AR,KINGSTON,36.04845,-93.504357
72744,AR,LINCOLN,35.956931,-94.42724
72745,AR,LOWELL,36.243318,-94.082725
72747,AR,MAYSVILLE,36.401062,-94.581278
72749,AR,MORROW,35.85373,-94.425793
72751,AR,PEA RIDGE,36.453884,-94.118026
72752,AR,PETTIGREW,35.834562,-93.618079
72753,AR,PRAIRIE GROVE,35.991809,-94.316861
72756,AR,ROGERS,36.336316,-94.114784
72760,AR,SAINT PAUL,35.849576,-93.734743
72761,AR,SILOAM SPRINGS,36.179969,-94.528036
72762,AR,SPRINGDALE,36.183521,-94.176216
72764,AR,BETHEL HEIGHTS,36.177918,-94.104682
72768,AR,SULPHUR SPRINGS,36.479434,-94.452069
72769,AR,SUMMERS,36.013827,-94.500027
72773,AR,WESLEY,35.957264,-93.911478
72774,AR,WEST FORK,35.908153,-94.230375
72776,AR,WITTER,35.935583,-93.621
72801,AR,RUSSELLVILLE,35.284208,-93.131476
72820,AR,ALIX,35.430767,-93.726416
72821,AR,ALTUS,35.404873,-93.811494
72823,AR,ATKINS,35.244948,-92.950696
72824,AR,BELLEVILLE,35.103762,-93.451817
72826,AR,BLUE MOUNTAIN,35.130386,-93.716797
72827,AR,BLUFFTON,34.901635,-93.591946
72828,AR,BRIGGSVILLE,34.916065,-93.515748
72830,AR,CLARKSVILLE,35.490763,-93.491056
72832,AR,COAL HILL,35.437117,-93.67203
72833,AR,DANVILLE,35.049541,-93.392933
72834,AR,DARDANELLE,35.195507,-93.187316
72835,AR,DELAWARE,35.278005,-93.346152
72837,AR,DOVER,35.407356,-93.135526
72838,AR,GRAVELLY,34.888123,-93.680249
72839,AR,HAGARVILLE,35.523291,-93.344256
72840,AR,HARTMAN,35.443583,-93.614196
72841,AR,HARVEY,34.867912,-93.752538
72842,AR,WAVELAND,35.111845,-93.576719
72843,AR,HECTOR,35.40574,-92.965559
72845,AR,KNOXVILLE,35.374897,-93.361797
72846,AR,LAMAR,35.434868,-93.355157
72847,AR,LONDON,35.337017,-93.238907
72851,AR,NEW BLAINE,35.318912,-93.44457
72852,AR,OARK,35.709454,-93.558531
72853,AR,OLA,35.03091,-93.21356
72854,AR,OZONE,35.657478,-93.43111
72855,AR,PARIS,35.294149,-93.726469
72856,AR,PELSOR,35.691158,-93.016088
72857,AR,PLAINVIEW,34.966793,-93.309897
72858,AR,POTTSVILLE,35.239785,-93.056386
72860,AR,ROVER,34.947522,-93.401728
72863,AR,SCRANTON,35.330816,-93.539362
72865,AR,SUBIACO,35.31346,-93.63869
72901,AR,FORT SMITH,35.365272,-94.411035
72903,AR,FORT SMITH,35.342673,-94.378361
72904,AR,FORT SMITH,35.405122,-94.38723
72905,AR,FORT CHAFFEE,35.297366,-94.340521
72916,AR,FORT SMITH,35.250175,-94.370308
72921,AR,ALMA,35.500043,-94.207337
72923,AR,BARLING,35.332963,-94.308226
72924,AR,BATES,34.909295,-94.393155
72926,AR,BOLES,34.765363,-94.062864
72927,AR,BOONEVILLE,35.136385,-93.927433
72928,AR,BRANCH,35.297055,-93.94537
72930,AR,CECIL,35.434176,-93.942932
72932,AR,CEDARVILLE,35.590231,-94.344618
72933,AR,CHARLESTON,35.311502,-94.03368
72934,AR,CHESTER,35.689776,-94.202026
72936,AR,GREENWOOD,35.195476,-94.253027
72937,AR,HACKETT,35.194476,-94.398328
72938,AR,HARTFORD,35.022233,-94.381876
72940,AR,HUNTINGTON,35.096267,-94.331283
72941,AR,CENTRAL CITY,35.337513,-94.165637
72943,AR,MAGAZINE,35.15873,-93.800336
72944,AR,MANSFIELD,35.0432,-94.22036
72946,AR,MOUNTAINBURG,35.570027,-94.109094
72947,AR,MULBERRY,35.517246,-93.988505
72948,AR,NATURAL DAM,35.674259,-94.412377
72949,AR,OZARK,35.524645,-93.837423
72950,AR,PARKS,34.800333,-93.950913
72951,AR,RATCLIFF,35.276032,-93.842149
72952,AR,RUDY,35.539805,-94.237376
72955,AR,UNIONTOWN,35.574822,-94.43487
72956,AR,VAN BUREN,35.453989,-94.327762
72958,AR,WALDRON,34.902642,-94.077243
72959,AR,WINSLOW,35.831206,-94.118657
75502,AR,TEXARKANA,33.432644,-94.011281
90001,CA,LOS ANGELES,33.973093,-118.247896
90002,CA,LOS ANGELES,33.94969,-118.246213
90003,CA,LOS ANGELES,33.965335,-118.272739
90004,CA,LOS ANGELES,34.076163,-118.302863
90005,CA,LOS ANGELES,34.058508,-118.301197
90006,CA,LOS ANGELES,34.049323,-118.291687
90007,CA,LOS ANGELES,34.029442,-118.287095
90008,CA,LOS ANGELES,34.011643,-118.341123
90010,CA,LOS ANGELES,34.060633,-118.302664
90011,CA,LOS ANGELES,34.007856,-118.258189
90012,CA,LOS ANGELES,34.061396,-118.238479
90013,CA,LOS ANGELES,34.044841,-118.243366
90014,CA,LOS ANGELES,34.044272,-118.250937
90015,CA,LOS ANGELES,34.043439,-118.271613
90016,CA,LOS ANGELES,34.029826,-118.352787
90017,CA,LOS ANGELES,34.055864,-118.266582
90018,CA,LOS ANGELES,34.028972,-118.315173
90019,CA,LOS ANGELES,34.048158,-118.33426
90020,CA,LOS ANGELES,34.066535,-118.302211
90021,CA,LOS ANGELES,34.033303,-118.244698
90022,CA,EAST LOS ANGELES,34.023638,-118.155319
90023,CA,LOS ANGELES,34.024478,-118.197498
90024,CA,LOS ANGELES,34.063691,-118.440796
90025,CA,LOS ANGELES,34.044662,-118.448717
90026,CA,LOS ANGELES,34.076629,-118.264641
90027,CA,LOS ANGELES,34.104031,-118.292516
90028,CA,LOS ANGELES,34.100549,-118.325363
90029,CA,LOS ANGELES,34.089982,-118.294393
90031,CA,LOS ANGELES,34.078349,-118.211279
90032,CA,LOS ANGELES,34.081785,-118.175323
90033,CA,LOS ANGELES,34.048676,-118.208442
90034,CA,LOS ANGELES,34.028977,-118.400482
90035,CA,LOS ANGELES,34.053096,-118.380615
90036,CA,LOS ANGELES,34.069888,-118.349175
90037,CA,LOS ANGELES,34.002982,-118.286284
90038,CA,LOS ANGELES,34.089769,-118.321489
90039,CA,LOS ANGELES,34.112089,-118.259428
90040,CA,CITY OF COMMERCE,33.99471,-118.151352
90041,CA,LOS ANGELES,34.133932,-118.208205
90042,CA,LOS ANGELES,34.114527,-118.192902
90043,CA,LOS ANGELES,33.987099,-118.33211
90044,CA,LOS ANGELES,33.955089,-118.290119
90045,CA,LOS ANGELES,33.963075,-118.394128
90046,CA,COLE,34.09743,-118.357979
90047,CA,LOS ANGELES,33.956896,-118.307304
90048,CA,LOS ANGELES,34.073656,-118.371969
90049,CA,LOS ANGELES,34.066,-118.473967
90056,CA,LOS ANGELES,33.985329,-118.370703
90057,CA,LOS ANGELES,34.062172,-118.276262
90058,CA,VERNON,33.997344,-118.235365
90059,CA,LOS ANGELES,33.929331,-118.24628
90061,CA,LOS ANGELES,33.924493,-118.271638
90062,CA,LOS ANGELES,34.00324,-118.307277
90063,CA,HAZARD,34.044017,-118.185432
90064,CA,LOS ANGELES,34.035279,-118.425911
90065,CA,LOS ANGELES,34.107307,-118.226637
90066,CA,LOS ANGELES,34.002956,-118.429769
90067,CA,LOS ANGELES,34.055146,-118.409479
90068,CA,LOS ANGELES,34.115625,-118.330476
90069,CA,WEST HOLLYWOOD,34.090573,-118.378753
90071,CA,LOS ANGELES,34.052043,-118.257127
90077,CA,LOS ANGELES,34.111245,-118.450155
90201,CA,BELL GARDENS,33.969177,-118.17205
90210,CA,BEVERLY HILLS,34.090107,-118.406477
90211,CA,BEVERLY HILLS,34.065217,-118.383007
90212,CA,BEVERLY HILLS,34.061855,-118.399544
90220,CA,RANCHO DOMINGUEZ,33.890654,-118.239044
90221,CA,EAST RANCHO DOMI,33.897324,-118.203724
90222,CA,ROSEWOOD,33.911535,-118.234034
90230,CA,CULVER CITY,33.994927,-118.399115
90232,CA,CULVER CITY,34.016809,-118.397332
90240,CA,DOWNEY,33.958135,-118.117381
90241,CA,DOWNEY,33.941612,-118.13062
90242,CA,DOWNEY,33.921789,-118.139465
90245,CA,EL SEGUNDO,33.924275,-118.411924
90247,CA,GARDENA,33.892463,-118.296122
90248,CA,GARDENA,33.874506,-118.289312
90249,CA,GARDENA,33.899762,-118.319854
90250,CA,HOLLY PARK,33.913214,-118.346978
90254,CA,HERMOSA BEACH,33.864309,-118.395511
90255,CA,HUNTINGTON PARK,33.976879,-118.216053
90260,CA,LAWNDALE,33.887908,-118.351014
90262,CA,LYNWOOD,33.924076,-118.201289
90265,CA,MALIBU,34.040184,-118.735149
90266,CA,MANHATTAN BEACH,33.889594,-118.399562
90270,CA,MAYWOOD,33.988992,-118.187685
90272,CA,PACIFIC PALISADE,34.054097,-118.536874
90274,CA,PALOS VERDES EST,33.770094,-118.374763
90277,CA,REDONDO BEACH,33.830656,-118.383221
90278,CA,REDONDO BEACH,33.870654,-118.371459
90280,CA,SOUTH GATE,33.94617,-118.201349
90290,CA,TOPANGA,34.10759,-118.602268
90291,CA,VENICE,33.993772,-118.463463
90292,CA,MARINA DEL REY,33.977876,-118.452475
90293,CA,PLAYA DEL REY,33.957745,-118.437314
90301,CA,INGLEWOOD,33.955048,-118.355575
90302,CA,INGLEWOOD,33.974496,-118.354805
90303,CA,INGLEWOOD,33.937691,-118.332058
90304,CA,LENNOX,33.938514,-118.355562
90305,CA,INGLEWOOD,33.958304,-118.32585
90401,CA,SANTA MONICA,34.017628,-118.490708
90402,CA,SANTA MONICA,34.034875,-118.503011
90403,CA,SANTA MONICA,34.028658,-118.49241
90404,CA,SANTA MONICA,34.026828,-118.4733
90405,CA,SANTA MONICA,34.01001,-118.471708
90501,CA,TORRANCE,33.826817,-118.31183
90502,CA,TORRANCE,33.828555,-118.292039
90503,CA,TORRANCE,33.839709,-118.354236
90504,CA,TORRANCE,33.870815,-118.329517
90505,CA,TORRANCE,33.810635,-118.350733
90506,CA,TORRANCE,33.885367,-118.329543
90601,CA,WHITTIER,34.001119,-118.037139
90602,CA,WHITTIER,33.96931,-118.033703
90603,CA,WHITTIER,33.943199,-117.992685
90604,CA,WHITTIER,33.929931,-118.012075
90605,CA,WHITTIER,33.941338,-118.035568
90606,CA,LOS NIETOS,33.977019,-118.065639
90620,CA,BUENA PARK,33.840607,-118.011359
90621,CA,BUENA PARK,33.873136,-117.994257
90623,CA,CERRITOS,33.849017,-118.040618
90630,CA,CYPRESS,33.818613,-118.038696
90631,CA,LA HABRA HEIGHTS,33.932173,-117.949703
90638,CA,LA MIRADA,33.906681,-118.010081
90640,CA,MONTEBELLO,34.013342,-118.112986
90650,CA,NORWALK,33.90564,-118.081767
90660,CA,PICO RIVERA,33.98857,-118.088269
90670,CA,SANTA FE SPRINGS,33.946407,-118.083801
90680,CA,STANTON,33.803029,-117.994709
90701,CA,CERRITOS,33.866568,-118.068046
90704,CA,AVALON,33.331963,-118.343706
90706,CA,BELLFLOWER,33.886676,-118.126527
90710,CA,HARBOR CITY,33.797006,-118.299114
90712,CA,LAKEWOOD,33.851201,-118.145727
90713,CA,LAKEWOOD,33.847302,-118.111464
90715,CA,LAKEWOOD,33.840453,-118.076707
90716,CA,HAWAIIAN GARDENS,33.82958,-118.072964
90717,CA,RANCHO PALOS VER,33.793339,-118.31693
90720,CA,ROSSMOOR,33.795291,-118.069891
90723,CA,PARAMOUNT,33.896867,-118.163152
90731,CA,SAN PEDRO,33.733894,-118.291425
90732,CA,RANCHO PALOS VER,33.744947,-118.310597
90740,CA,SEAL BEACH,33.760971,-118.08428
90744,CA,WILMINGTON,33.785475,-118.264451
90745,CA,CARSON,33.822968,-118.268352
90746,CA,CARSON,33.858444,-118.255449
90802,CA,LONG BEACH,33.770553,-118.182025
90803,CA,LONG BEACH,33.761932,-118.134073
90804,CA,SIGNAL HILL,33.782993,-118.155187
90805,CA,LONG BEACH,33.863457,-118.180102
90806,CA,SIGNAL HILL,33.799319,-118.187443
90807,CA,SIGNAL HILL,33.830712,-118.18092
90808,CA,LONG BEACH,33.824145,-118.110299
90810,CA,CARSON,33.810985,-118.215006
90813,CA,LONG BEACH,33.78202,-118.183488
90814,CA,LONG BEACH,33.771576,-118.147988
90815,CA,LONG BEACH,33.793908,-118.119249
90822,CA,LONG BEACH,33.744415,-118.239257
91001,CA,ALTADENA,34.191187,-118.13919
91006,CA,ARCADIA,34.132389,-118.026374
91007,CA,ARCADIA,34.124271,-118.051483
91010,CA,BRADBURY,34.137445,-117.967005
91011,CA,FLINTRIDGE,34.209282,-118.199008
91016,CA,MONROVIA,34.143959,-118.001376
91020,CA,MONTROSE,34.211425,-118.230529
91024,CA,SIERRA MADRE,34.165101,-118.051916
91030,CA,SOUTH PASADENA,34.110939,-118.154696
91040,CA,SHADOW HILLS,34.261025,-118.321359
91042,CA,TUJUNGA,34.254389,-118.284856
91101,CA,PASADENA,34.146762,-118.139119
91103,CA,PASADENA,34.166906,-118.155119
91104,CA,PASADENA,34.167776,-118.12609
91105,CA,PASADENA,34.135455,-118.163577
91106,CA,PASADENA,34.143527,-118.126647
91107,CA,PASADENA,34.150997,-118.088905
91108,CA,SAN MARINO,34.120698,-118.111745
91201,CA,GLENDALE,34.171606,-118.289892
91202,CA,GLENDALE,34.165235,-118.265649
91203,CA,GLENDALE,34.151718,-118.263614
91204,CA,GLENDALE,34.137871,-118.259947
91205,CA,GLENDALE,34.137798,-118.24245
91206,CA,GLENDALE,34.155605,-118.232217
91207,CA,GLENDALE,34.164856,-118.245086
91208,CA,GLENDALE,34.19212,-118.234966
91214,CA,LA CRESCENTA,34.231619,-118.245687
91301,CA,OAK PARK,34.157163,-118.75718
91302,CA,CALABASAS,34.141854,-118.664103
91303,CA,CANOGA PARK,34.199257,-118.59828
91304,CA,CANOGA PARK,34.219671,-118.611059
91306,CA,WINNETKA,34.2092,-118.57492
91307,CA,WEST HILLS,34.196343,-118.638892
91311,CA,CHATSWORTH,34.258253,-118.591357
91316,CA,ENCINO,34.165479,-118.517542
91320,CA,NEWBURY PARK,34.177393,-118.935798
91321,CA,NEWHALL,34.379519,-118.523005
91324,CA,NORTHRIDGE,34.236743,-118.546595
91325,CA,NORTHRIDGE,34.235332,-118.51884
91326,CA,PORTER RANCH,34.274191,-118.541235
91330,CA,CALIFORNIA STATE,34.23805,-118.528634
91331,CA,ARLETA,34.258081,-118.420692
91335,CA,RESEDA,34.200663,-118.539071
91340,CA,SAN FERNANDO,34.287509,-118.435242
91342,CA,SYLMAR,34.30538,-118.432181
91343,CA,NORTH HILLS,34.236636,-118.47582
91344,CA,GRANADA HILLS,34.277068,-118.4992
91345,CA,MISSION HILLS,34.261873,-118.458659
91350,CA,AGUA DULCE,34.459742,-118.488955
91351,CA,CANYON COUNTRY,34.426203,-118.449011
91352,CA,SUN VALLEY,34.220907,-118.369853
91354,CA,VALENCIA,34.446608,-118.537437
91355,CA,VALENCIA,34.398456,-118.55352
91356,CA,TARZANA,34.16708,-118.541354
91360,CA,THOUSAND OAKS,34.209179,-118.873908
91361,CA,WESTLAKE VILLAGE,34.147233,-118.83832
91362,CA,WESTLAKE VILLAGE,34.191884,-118.830601
91364,CA,WOODLAND HILLS,34.155652,-118.600019
91367,CA,WOODLAND HILLS,34.176689,-118.615891
91381,CA,NEWHALL,34.381067,-118.582134
91384,CA,CASTAIC,34.482695,-118.62537
91401,CA,VAN NUYS,34.180152,-118.432375
91402,CA,PANORAMA CITY,34.226158,-118.447009
91403,CA,SHERMAN OAKS,34.151407,-118.460325
91405,CA,VAN NUYS,34.200068,-118.445636
91406,CA,VAN NUYS,34.200568,-118.486821
91411,CA,VAN NUYS,34.178133,-118.457396
91423,CA,SHERMAN OAKS,34.152565,-118.432208
91436,CA,ENCINO,34.15098,-118.488238
91501,CA,BURBANK,34.186238,-118.300898
91502,CA,BURBANK,34.174487,-118.305912
91504,CA,BURBANK,34.200097,-118.326401
91505,CA,BURBANK,34.168998,-118.344175
91506,CA,BURBANK,34.171746,-118.323148
91601,CA,NORTH HOLLYWOOD,34.16867,-118.371274
91602,CA,TOLUCA LAKE,34.151095,-118.367606
91604,CA,STUDIO CITY,34.143025,-118.391311
91605,CA,NORTH HOLLYWOOD,34.205747,-118.400069
91606,CA,NORTH HOLLYWOOD,34.187182,-118.386538
91607,CA,VALLEY VILLAGE,34.167217,-118.398905
91701,CA,ALTA LOMA,34.133922,-117.599149
91702,CA,AZUSA,34.12476,-117.903083
91706,CA,IRWINDALE,34.084245,-117.969539
91709,CA,CHINO HILLS,33.979735,-117.730791
91710,CA,CHINO,34.012532,-117.684401
91711,CA,CLAREMONT,34.109167,-117.718293
91719,CA,CORONA,33.861839,-117.531916
91720,CA,CORONA,33.876995,-117.594288
91722,CA,COVINA,34.097162,-117.906544
91723,CA,COVINA,34.08596,-117.884285
91724,CA,COVINA,34.093752,-117.855982
91730,CA,RANCHO CUCAMONGA,34.107039,-117.59408
91731,CA,EL MONTE,34.079142,-118.037108
91732,CA,EL MONTE,34.070533,-118.01492
91733,CA,SOUTH EL MONTE,34.055676,-118.044381
91737,CA,ALTA LOMA,34.144883,-117.579295
91739,CA,ETIWANDA,34.119873,-117.519329
91740,CA,GLENDORA,34.128663,-117.855155
91744,CA,INDUSTRY,34.029428,-117.934098
91745,CA,HACIENDA HEIGHTS,33.997741,-117.965205
91746,CA,BASSETT,34.050963,-117.980026
91748,CA,ROWLAND HEIGHTS,33.981777,-117.896946
91750,CA,LA VERNE,34.115905,-117.77077
91752,CA,MIRA LOMA,33.993845,-117.523574
91754,CA,MONTEREY PARK,34.053409,-118.127144
91759,CA,MT BALDY,34.218082,-117.580219
91760,CA,NORCO,33.927983,-117.557866
91761,CA,ONTARIO,34.031647,-117.618662
91762,CA,ONTARIO,34.058415,-117.66647
91763,CA,MONTCLAIR,34.073298,-117.698669
91764,CA,ONTARIO,34.076308,-117.625402
91765,CA,DIAMOND BAR,34.006585,-117.809822
91766,CA,PHILLIPS RANCH,34.043268,-117.752086
91767,CA,POMONA,34.081187,-117.736171
91768,CA,POMONA,34.066168,-117.776312
91770,CA,ROSEMEAD,34.065767,-118.08529
91773,CA,SAN DIMAS,34.102263,-117.81694
91775,CA,SAN GABRIEL,34.115486,-118.085658
91776,CA,SAN GABRIEL,34.089027,-118.095471
91780,CA,TEMPLE CITY,34.101586,-118.053652
91786,CA,UPLAND,34.114432,-117.658336
91789,CA,DIAMOND BAR,34.016625,-117.857828
91790,CA,WEST COVINA,34.067336,-117.936643
91791,CA,WEST COVINA,34.065267,-117.897767
91792,CA,WEST COVINA,34.022852,-117.897459
91801,CA,ALHAMBRA,34.091436,-118.129288
91803,CA,ALHAMBRA,34.074514,-118.143354
91901,CA,ALPINE,32.828161,-116.754328
91902,CA,BONITA,32.667143,-117.022065
91905,CA,BOULEVARD,32.671934,-116.319982
91906,CA,CAMPO,32.660491,-116.490459
91910,CA,CHULA VISTA,32.637139,-117.06756
91911,CA,CHULA VISTA,32.608428,-117.056459
91913,CA,CHULA VISTA,32.651296,-116.985237
91914,CA,CHULA VISTA,32.65875,-116.96517
91915,CA,CHULA VISTA,32.631513,-116.940807
91916,CA,DESCANSO,32.872971,-116.602732
91917,CA,DULZURA,32.615172,-116.728523
91932,CA,IMPERIAL BEACH,32.578289,-117.11478
91934,CA,JACUMBA,32.624934,-116.195184
91935,CA,JAMUL,32.716289,-116.832332
91941,CA,LA MESA,32.760431,-117.011541
91942,CA,LA MESA,32.783506,-117.018879
91945,CA,LEMON GROVE,32.73323,-117.032646
91950,CA,NATIONAL CITY,32.674916,-117.089747
91962,CA,PINE VALLEY,32.835047,-116.512733
91963,CA,POTRERO,32.620477,-116.603748
91977,CA,SPRING VALLEY,32.724014,-116.997644
91978,CA,SPRING VALLEY,32.732892,-116.959551
91980,CA,TECATE,32.592205,-116.606397
92003,CA,BONSALL,33.294033,-117.18969
92004,CA,BORREGO SPRINGS,33.238649,-116.351394
92007,CA,CARDIFF BY THE S,33.025265,-117.274371
92008,CA,CARLSBAD,33.160241,-117.324998
92009,CA,CARLSBAD,33.095407,-117.261888
92014,CA,DEL MAR,32.971474,-117.237314
92019,CA,EL CAJON,32.777726,-116.919055
92020,CA,EL CAJON,32.792765,-116.966504
92021,CA,EL CAJON,32.817847,-116.922336
92024,CA,ENCINITAS,33.053469,-117.26891
92025,CA,ESCONDIDO,33.110117,-117.069987
92026,CA,ESCONDIDO,33.160513,-117.097808
92027,CA,ESCONDIDO,33.138824,-117.051966
92028,CA,FALLBROOK,33.369015,-117.228952
92029,CA,ESCONDIDO,33.089497,-117.112793
92036,CA,JULIAN,33.053355,-116.565812
92037,CA,LA JOLLA,32.845488,-117.25208
92040,CA,LAKESIDE,32.856181,-116.920089
92054,CA,OCEANSIDE,33.20723,-117.357294
92055,CA,MARINE CORP BASE,33.327929,-117.409452
92056,CA,OCEANSIDE,33.196784,-117.283089
92057,CA,OCEANSIDE,33.240654,-117.302484
92059,CA,PALA,33.377662,-117.071725
92061,CA,PAUMA VALLEY,33.306285,-116.959552
92064,CA,POWAY,32.975619,-117.040223
92065,CA,RAMONA,33.029349,-116.853548
92066,CA,RANCHITA,33.24055,-116.539121
92068,CA,SAN LUIS REY,33.294367,-117.306403
92069,CA,SAN MARCOS,33.144386,-117.169716
92070,CA,SANTA YSABEL,33.147579,-116.69635
92071,CA,SANTEE,32.848636,-116.986154
92075,CA,SOLANA BEACH,32.993739,-117.2598
92082,CA,VALLEY CENTER,33.249046,-117.012232
92083,CA,VISTA,33.187296,-117.245854
92084,CA,VISTA,33.213118,-117.224285
92086,CA,WARNER SPRINGS,33.303666,-116.721385
92101,CA,SAN DIEGO,32.71852,-117.159316
92102,CA,SAN DIEGO,32.713893,-117.121858
92103,CA,SAN DIEGO,32.746638,-117.163552
92104,CA,SAN DIEGO,32.745425,-117.127189
92105,CA,SAN DIEGO,32.7423,-117.094681
92106,CA,SAN DIEGO,32.72725,-117.226829
92107,CA,SAN DIEGO,32.742531,-117.243307
92108,CA,SAN DIEGO,32.778327,-117.133525
92109,CA,SAN DIEGO,32.796923,-117.240534
92110,CA,SAN DIEGO,32.763476,-117.202847
92111,CA,SAN DIEGO,32.797185,-117.17081
92113,CA,SAN DIEGO,32.697047,-117.115257
92114,CA,SAN DIEGO,32.705923,-117.05235
92115,CA,SAN DIEGO,32.760742,-117.072056
92116,CA,SAN DIEGO,32.762446,-117.124166
92117,CA,SAN DIEGO,32.823948,-117.196536
92118,CA,CORONADO,32.68069,-117.169823
92119,CA,SAN DIEGO,32.803587,-117.026065
92120,CA,SAN DIEGO,32.79581,-117.070708
92121,CA,SAN DIEGO,32.891894,-117.203503
92122,CA,SAN DIEGO,32.857736,-117.211507
92123,CA,SAN DIEGO,32.797297,-117.139248
92124,CA,SAN DIEGO,32.820113,-117.098613
92126,CA,SAN DIEGO,32.916136,-117.140227
92127,CA,SAN DIEGO,33.027854,-117.085596
92128,CA,SAN DIEGO,33.00666,-117.068982
92129,CA,SAN DIEGO,32.965185,-117.121308
92130,CA,SAN DIEGO,32.955533,-117.225201
92131,CA,SAN DIEGO,32.912343,-117.089758
92135,CA,SAN DIEGO,32.702482,-117.19202
92136,CA,SAN DIEGO,32.681585,-117.124678
92139,CA,SAN DIEGO,32.680612,-117.047375
92145,CA,SAN DIEGO,32.870365,-117.116518
92154,CA,SAN DIEGO,32.575276,-117.070725
92155,CA,SAN DIEGO,32.676144,-117.160335
92173,CA,SAN YSIDRO,32.562567,-117.042976
92201,CA,CHIRIACO SUMMIT,33.721899,-116.235729
92210,CA,INDIAN WELLS,33.716334,-116.338129
92220,CA,BANNING,33.92816,-116.889928
92223,CA,BEAUMONT,33.950429,-116.970079
92225,CA,LOST LAKE,33.605715,-114.597131
92227,CA,BRAWLEY,32.979181,-115.529613
92230,CA,CABAZON,33.908583,-116.773948
92231,CA,CALEXICO,32.683227,-115.502815
92233,CA,CALIPATRIA,33.166956,-115.511402
92234,CA,CATHEDRAL CITY,33.809839,-116.466497
92236,CA,COACHELLA,33.674965,-116.177231
92239,CA,EAGLE MOUNTAIN,33.604941,-115.052603
92240,CA,DESERT HOT SPRIN,33.904973,-116.366222
92242,CA,BIG RIVER,34.149142,-114.33928
92243,CA,EL CENTRO,32.789332,-115.566508
92249,CA,HEBER,32.698918,-115.428281
92250,CA,HOLTVILLE,32.810387,-115.377456
92251,CA,IMPERIAL,32.846954,-115.572984
92252,CA,JOSHUA TREE,34.150163,-116.303763
92253,CA,LA QUINTA,33.668474,-116.308081
92256,CA,MORONGO VALLEY,34.060646,-116.565641
92257,CA,NILAND,33.378373,-115.696455
92260,CA,PALM CITY,33.730842,-116.366442
92262,CA,PALM SPRINGS,33.841406,-116.53466
92264,CA,PALM SPRINGS,33.801828,-116.516958
92267,CA,PARKER DAM,34.297977,-114.155969
92270,CA,RANCHO MIRAGE,33.764284,-116.422451
92272,CA,BLYTHE,33.951256,-116.495855
92274,CA,SALTON CITY,33.543418,-116.11584
92276,CA,THOUSAND PALMS,33.808158,-116.371305
92277,CA,TWENTYNINE PALMS,34.145509,-116.060133
92278,CA,TWENTYNINE PALMS,34.237969,-116.06041
92280,CA,VIDAL,34.156109,-114.565602
92281,CA,WESTMORLAND,33.041058,-115.630723
92282,CA,WHITE WATER,33.927591,-116.693154
92283,CA,FELICITY,32.832922,-114.636634
92284,CA,YUCCA VALLEY,34.155936,-116.431313
92301,CA,ADELANTO,34.584128,-117.424189
92304,CA,AMBOY,34.599012,-115.774907
92305,CA,ANGELUS OAKS,34.153149,-116.948482
92307,CA,APPLE VALLEY,34.529081,-117.2132
92308,CA,APPLE VALLEY,34.469814,-117.192684
92309,CA,BAKER,35.360573,-116.063754
92310,CA,FORT IRWIN,35.40148,-116.644759
92311,CA,BARSTOW,34.89145,-117.038702
92314,CA,BIG BEAR CITY,34.242233,-116.920412
92316,CA,BLOOMINGTON,34.066198,-117.399295
92320,CA,CALIMESA,33.994586,-117.04304
92324,CA,GRAND TERRACE,34.057964,-117.318577
92327,CA,DAGGETT,34.86677,-116.887555
92328,CA,DEATH VALLEY,36.467165,-116.893682
92332,CA,ESSEX,34.560626,-115.280344
92335,CA,FONTANA,34.079351,-117.455114
92336,CA,FONTANA,34.117276,-117.437759
92338,CA,LUDLOW,34.901779,-116.386202
92339,CA,FOREST FALLS,34.08805,-116.914147
92342,CA,HELENDALE,34.749859,-117.33666
92345,CA,HESPERIA,34.422215,-117.302527
92346,CA,EAST HIGHLAND,34.126969,-117.208717
92347,CA,HINKLEY,34.92788,-117.180867
92351,CA,KELSO,34.9678,-115.577574
92354,CA,LOMA LINDA,34.052833,-117.251286
92356,CA,LUCERNE VALLEY,34.44695,-116.918857
92358,CA,LYTLE CREEK,34.255755,-117.518613
92359,CA,MENTONE,34.077372,-117.112581
92363,CA,NEEDLES,34.782369,-114.587134
92364,CA,NIPTON,35.46761,-115.481436
92365,CA,NEWBERRY SPRINGS,34.885001,-116.746373
92368,CA,ORO GRANDE,34.617832,-117.332733
92371,CA,PHELAN,34.444901,-117.519604
92372,CA,PINON HILLS,34.442937,-117.640262
92373,CA,REDLANDS,34.039659,-117.180352
92374,CA,REDLANDS,34.064989,-117.167182
92376,CA,RIALTO,34.113155,-117.377133
92384,CA,SHOSHONE,35.899239,-116.264476
92389,CA,TECOPA,35.897925,-115.829824
92392,CA,SPRING VALLEY LA,34.503917,-117.319235
92394,CA,GEORGE AFB,34.577325,-117.363516
92397,CA,WRIGHTWOOD,34.362839,-117.6249
92399,CA,YUCAIPA,34.028197,-117.048925
92401,CA,SAN BERNARDINO,34.110521,-117.289753
92404,CA,SAN BERNARDINO,34.142577,-117.260572
92405,CA,MUSCOY,34.144101,-117.310765
92407,CA,SAN BERNARDINO,34.20928,-117.293697
92408,CA,SAN BERNARDINO,34.083127,-117.271059
92409,CA,SAN BERNARDINO,34.103685,-117.241291
92410,CA,SAN BERNARDINO,34.107729,-117.296789
92411,CA,SAN BERNARDINO,34.121414,-117.317158
92501,CA,RIVERSIDE,33.9924,-117.369421
92503,CA,RIVERSIDE,33.920808,-117.458862
92504,CA,RIVERSIDE,33.931458,-117.411948
92505,CA,RIVERSIDE,33.922769,-117.486687
92506,CA,RIVERSIDE,33.945485,-117.375696
92507,CA,RIVERSIDE,33.976086,-117.338874
92508,CA,RIVERSIDE,33.889676,-117.304264
92509,CA,RUBIDOUX,33.997355,-117.444896
92530,CA,LAKE ELSINORE,33.659816,-117.348535
92532,CA,LAKE ELSINORE,33.651662,-117.271278
92536,CA,AGUANGA,33.447306,-116.799693
92539,CA,ANZA,33.568812,-116.71355
92543,CA,HEMET,33.741613,-116.972974
92544,CA,HEMET,33.738978,-116.924306
92545,CA,HEMET,33.739857,-117.015078
92548,CA,HOMELAND,33.74528,-117.111845
92549,CA,IDYLLWILD,33.730433,-116.710665
92553,CA,MORENO VALLEY,33.915719,-117.235066
92555,CA,MORENO VALLEY,33.937659,-117.185105
92557,CA,MORENO VALLEY,33.955257,-117.245682
92561,CA,MOUNTAIN CENTER,33.531667,-116.581954
92562,CA,MURRIETA,33.563071,-117.273838
92563,CA,MURRIETA,33.56903,-117.178298
92567,CA,LAKEVIEW,33.807712,-117.118704
92570,CA,MEAD VALLEY,33.797535,-117.280005
92571,CA,PERRIS,33.810979,-117.217968
92582,CA,SAN JACINTO,33.788281,-116.981911
92583,CA,GILMAN HOT SPRIN,33.78604,-116.955201
92584,CA,MENIFEE,33.664744,-117.1743
92585,CA,ROMOLAND,33.744518,-117.171899
92586,CA,SUN CITY,33.704373,-117.196942
92587,CA,CANYON LAKE,33.688756,-117.252653
92590,CA,TEMECULA,33.490269,-117.182437
92591,CA,TEMECULA,33.521687,-117.128571
92592,CA,TEMECULA,33.498314,-117.095774
92595,CA,WILDOMAR,33.602115,-117.263953
92596,CA,WINCHESTER,33.624269,-117.088518
92610,CA,FOOTHILL RANCH,33.666822,-117.664995
92621,CA,BREA,33.922897,-117.886742
92624,CA,CAPISTRANO BEACH,33.459115,-117.662657
92625,CA,CORONA DEL MAR,33.602066,-117.874331
92626,CA,COSTA MESA,33.677711,-117.909623
92627,CA,COSTA MESA,33.647793,-117.917667
92629,CA,MONARCH BAY,33.476964,-117.700483
92630,CA,LAKE FOREST,33.640015,-117.68819
92631,CA,FULLERTON,33.880519,-117.89157
92632,CA,FULLERTON,33.865848,-117.928376
92633,CA,FULLERTON,33.873913,-117.961043
92635,CA,FULLERTON,33.901181,-117.927801
92640,CA,GARDEN GROVE,33.785826,-117.92906
92641,CA,GARDEN GROVE,33.786651,-117.975526
92643,CA,GARDEN GROVE,33.762641,-117.930193
92644,CA,GARDEN GROVE,33.765532,-117.96935
92645,CA,GARDEN GROVE,33.78324,-118.02639
92646,CA,HUNTINGTON BEACH,33.668448,-117.967771
92647,CA,HUNTINGTON BEACH,33.721018,-118.003035
92648,CA,HUNTINGTON BEACH,33.674577,-117.999012
92649,CA,HUNTINGTON BEACH,33.719111,-118.045142
92651,CA,LAGUNA NIGUEL,33.542927,-117.772351
92653,CA,LAGUNA HILLS,33.60028,-117.70854
92655,CA,MIDWAY CITY,33.744794,-117.983539
92656,CA,ALISO VIEJO,33.572367,-117.708906
92657,CA,NEWPORT BEACH,33.596382,-117.855317
92660,CA,NEWPORT BEACH,33.630027,-117.8757
92661,CA,NEWPORT BEACH,33.604429,-117.906237
92662,CA,NEWPORT BEACH,33.606459,-117.891732
92663,CA,NEWPORT BEACH,33.623084,-117.92788
92665,CA,ORANGE,33.83096,-117.844903
92666,CA,ORANGE,33.785258,-117.845461
92667,CA,VILLA PARK,33.81036,-117.828421
92668,CA,ORANGE,33.786481,-117.87532
92669,CA,ORANGE,33.791672,-117.800285
92670,CA,PLACENTIA,33.880323,-117.859837
92672,CA,SAN CLEMENTE,33.430809,-117.610139
92675,CA,MISSION VIEJO,33.511714,-117.657409
92677,CA,LAGUNA NIGUEL,33.522871,-117.705154
92679,CA,COTO DE CAZA,33.634576,-117.577709
92680,CA,TUSTIN,33.73713,-117.819193
92683,CA,WESTMINSTER,33.752756,-117.991312
92686,CA,YORBA LINDA,33.888361,-117.799619
92687,CA,YORBA LINDA,33.88238,-117.731162
92688,CA,RANCHO SANTA MAR,33.651822,-117.588388
92691,CA,MISSION VIEJO,33.617155,-117.664119
92692,CA,MISSION VIEJO,33.610872,-117.64245
92701,CA,SANTA ANA,33.75016,-117.857665
92703,CA,SANTA ANA,33.746613,-117.899589
92704,CA,SANTA ANA,33.726513,-117.904683
92705,CA,COWAN HEIGHTS,33.74866,-117.768902
92706,CA,SANTA ANA,33.764434,-117.881791
92707,CA,SANTA ANA HEIGHT,33.715938,-117.870346
92708,CA,FOUNTAIN VALLEY,33.710762,-117.952318
92709,CA,EL TORO MARINE C,33.681287,-117.715018
92714,CA,IRVINE,33.68764,-117.798928
92715,CA,IRVINE,33.650884,-117.821251
92718,CA,IRVINE,33.658179,-117.711476
92720,CA,IRVINE,33.707495,-117.765533
92801,CA,ANAHEIM,33.842679,-117.954035
92802,CA,ANAHEIM,33.806909,-117.92219
92804,CA,ANAHEIM,33.81908,-117.974985
92805,CA,ANAHEIM,33.835332,-117.906263
92806,CA,ANAHEIM,33.837344,-117.875928
92807,CA,ANAHEIM,33.851583,-117.787657
92808,CA,ANAHEIM,33.857569,-117.748445
93001,CA,SAN BUENAVENTURA,34.290531,-119.28882
93003,CA,SAN BUENAVENTURA,34.270568,-119.2214
93004,CA,SAN BUENAVENTURA,34.278091,-119.168727
93010,CA,CAMARILLO,34.231328,-119.046361
93012,CA,CAMARILLO,34.22179,-118.986648
93013,CA,CARPINTERIA,34.403589,-119.518257
93015,CA,BARDSDALE,34.402557,-118.904071
93021,CA,MOORPARK,34.278421,-118.877139
93022,CA,OAK VIEW,34.402021,-119.298168
93023,CA,OJAI,34.44512,-119.256477
93030,CA,OXNARD,34.214142,-119.174952
93033,CA,OXNARD,34.168505,-119.171732
93035,CA,OXNARD,34.182177,-119.215975
93041,CA,PORT HUENEME,34.162572,-119.197317
93042,CA,POINT MUGU NAWC,34.123432,-119.09931
93043,CA,PORT HUENEME CBC,34.16212,-119.206008
93060,CA,SANTA PAULA,34.354718,-119.071328
93063,CA,SANTA SUSANA,34.279202,-118.699229
93065,CA,SIMI VALLEY,34.265589,-118.765349
93066,CA,SOMIS,34.279753,-119.011537
93067,CA,SUMMERLAND,34.424541,-119.596016
93101,CA,SANTA BARBARA,34.419668,-119.70782
93103,CA,SANTA BARBARA,34.429065,-119.683275
93105,CA,SANTA BARBARA,34.436915,-119.728538
93108,CA,MONTECITO,34.434258,-119.64255
93109,CA,SANTA BARBARA,34.403848,-119.7194
93110,CA,SANTA BARBARA,34.441814,-119.764668
93111,CA,SANTA BARBARA,34.445262,-119.802509
93117,CA,GOLETA,34.429631,-119.861245
93202,CA,ARMONA,36.309459,-119.705279
93203,CA,ARVIN,35.196629,-118.8336
93204,CA,AVENAL,35.987667,-120.122716
93205,CA,BODFISH,35.587046,-118.484656
93206,CA,BUTTONWILLOW,35.403268,-119.465926
93207,CA,CALIFORNIA HOT S,35.892422,-118.646317
93210,CA,COALINGA,36.162435,-120.348928
93212,CA,CORCORAN,36.086455,-119.560665
93214,CA,CUYAMA,34.933694,-119.661339
93215,CA,DELANO,35.771511,-119.24594
93217,CA,DI GIORGIO,35.247604,-118.846755
93219,CA,EARLIMART,35.854195,-119.253406
93221,CA,EXETER,36.304055,-119.12928
93223,CA,FARMERSVILLE,36.300169,-119.205357
93224,CA,FELLOWS,35.202579,-119.564757
93225,CA,FRAZIER PARK,34.826463,-119.035488
93226,CA,GLENNVILLE,35.737677,-118.71693
93230,CA,HANFORD,36.331419,-119.649094
93234,CA,HURON,36.237144,-120.101964
93235,CA,IVANHOE,36.385622,-119.218884
93238,CA,KERNVILLE,35.755005,-118.404723
93239,CA,KETTLEMAN CITY,36.021501,-119.964361
93240,CA,MOUNTAIN MESA,35.617889,-118.441256
93241,CA,LAMONT,35.257059,-118.912419
93242,CA,LATON,36.437834,-119.715565
93243,CA,GORMAN,34.828862,-118.879126
93244,CA,LEMONCOVE,36.396084,-119.004986
93245,CA,LEMOORE NAVAL AI,36.309535,-119.831017
93247,CA,LINDSAY,36.209551,-119.088427
93249,CA,LOST HILLS,35.613111,-119.721573
93250,CA,MC FARLAND,35.675779,-119.227156
93251,CA,MC KITTRICK,35.303097,-119.636627
93252,CA,MARICOPA,35.038353,-119.407661
93254,CA,NEW CUYAMA,34.996709,-119.823806
93255,CA,ONYX,35.713584,-118.190227
93256,CA,PIXLEY,35.955286,-119.256427
93257,CA,PORTERVILLE,36.068636,-119.031549
93260,CA,POSEY,35.813496,-118.664286
93262,CA,GIANT FOREST,36.573878,-118.772271
93263,CA,SHAFTER,35.496994,-119.280075
93265,CA,SPRINGVILLE,36.136314,-118.796059
93266,CA,STRATFORD,36.178976,-119.823564
93267,CA,STRATHMORE,36.147237,-119.079163
93268,CA,TAFT,35.148164,-119.455674
93270,CA,TERRA BELLA,35.95698,-119.031239
93271,CA,THREE RIVERS,36.437686,-118.88754
93272,CA,TIPTON,36.054567,-119.30781
93274,CA,TULARE,36.202155,-119.33802
93276,CA,TUPMAN,35.288547,-119.341994
93277,CA,VISALIA,36.311379,-119.306471
93280,CA,POND,35.593375,-119.344728
93283,CA,WELDON,35.639076,-118.285856
93285,CA,WOFFORD HEIGHTS,35.724556,-118.455877
93286,CA,WOODLAKE,36.431334,-119.091764
93287,CA,WOODY,35.70681,-118.843872
93291,CA,VISALIA,36.355108,-119.301029
93301,CA,BAKERSFIELD,35.386611,-119.017063
93304,CA,BAKERSFIELD,35.339581,-119.021793
93305,CA,COLLEGE HEIGHTS,35.387772,-118.982042
93306,CA,BAKERSFIELD,35.386697,-118.939104
93307,CA,BAKERSFIELD,35.327484,-118.983851
93308,CA,BAKERSFIELD,35.424395,-119.043319
93309,CA,BAKERSFIELD,35.33839,-119.062713
93311,CA,BAKERSFIELD,35.303891,-119.105647
93312,CA,GREENACRES,35.382082,-119.15014
93313,CA,BAKERSFIELD,35.297391,-119.050936
93401,CA,SAN LUIS OBISPO,35.263453,-120.650933
93402,CA,LOS OSOS,35.317203,-120.833261
93405,CA,SAN LUIS OBISPO,35.290058,-120.681724
93420,CA,HALCYON,35.11449,-120.57289
93422,CA,ATASCADERO,35.475439,-120.663838
93426,CA,BRADLEY,35.809255,-120.972793
93427,CA,BUELLTON,34.62093,-120.192233
93428,CA,CAMBRIA,35.556568,-121.084029
93430,CA,CAYUCOS,35.444606,-120.890791
93431,CA,CHOLAME,35.543847,-120.194827
93432,CA,CRESTON,35.491543,-120.554238
93433,CA,GROVER BEACH,35.120969,-120.617348
93434,CA,GUADALUPE,34.959989,-120.570329
93436,CA,LOMPOC,34.658349,-120.450605
93437,CA,LOMPOC,34.753215,-120.517096
93442,CA,MORRO BAY,35.37953,-120.844745
93444,CA,NIPOMO,35.029806,-120.489413
93445,CA,OCEANO,35.10187,-120.608044
93446,CA,ADELAIDE,35.635248,-120.670676
93449,CA,SHELL BEACH,35.149212,-120.651788
93450,CA,SAN ARDO,35.985685,-120.861191
93451,CA,PARKFIELD,35.753209,-120.696532
93452,CA,SAN SIMEON,35.666815,-121.144033
93453,CA,CALIFORNIA VALLE,35.341254,-120.3202
93454,CA,SANTA MARIA,34.954538,-120.43245
93455,CA,ORCUTT,34.879786,-120.429128
93460,CA,SANTA YNEZ,34.623966,-120.071332
93461,CA,SHANDON,35.651273,-120.372047
93463,CA,BALLARD,34.609931,-120.129286
93465,CA,TEMPLETON,35.555082,-120.710737
93501,CA,MOJAVE,35.047767,-118.173475
93505,CA,CALIFORNIA CITY,35.127783,-117.965142
93510,CA,ACTON,34.483541,-118.195929
93512,CA,BENTON,37.798099,-118.498526
93513,CA,BIG PINE,37.167857,-118.291597
93514,CA,TOMS PLACE,37.386301,-118.44156
93516,CA,BORON,35.003748,-117.662921
93517,CA,BRIDGEPORT,38.256601,-119.208025
93518,CA,HAVILAH,35.356798,-118.410264
93519,CA,CANTIL,35.282558,-117.993868
93523,CA,NORTH EDWARDS,34.930507,-117.915384
93526,CA,INDEPENDENCE,36.839578,-118.204808
93527,CA,PEARSONVILLE,35.674498,-117.834844
93528,CA,JOHANNESBURG,35.370655,-117.637325
93529,CA,JUNE LAKE,37.777324,-119.082492
93531,CA,KEENE,35.237502,-118.607563
93532,CA,ELIZABETH LAKE,34.668297,-118.444719
93534,CA,LANCASTER,34.690888,-118.149129
93535,CA,HI VISTA,34.684751,-118.063245
93536,CA,QUARTZ HILL,34.673619,-118.213336
93541,CA,LEE VINING,37.988988,-119.123413
93543,CA,JUNIPER HILLS,34.547372,-117.957405
93544,CA,CRYSTALAIRE,34.495914,-117.798841
93545,CA,LONE PINE,36.579781,-118.057824
93546,CA,CROWLEY LAKE,37.642361,-118.976383
93550,CA,LAKE LOS ANGELES,34.571483,-118.061306
93551,CA,LEONA VALLEY,34.601404,-118.181207
93553,CA,JUNIPER HILLS,34.491124,-117.902893
93554,CA,RANDSBURG,35.352176,-117.726396
93555,CA,CHINA LAKE NWC,35.631376,-117.679733
93560,CA,WILLOW SPRINGS,34.863117,-118.19636
93561,CA,BEAR VALLEY SPRI,35.129776,-118.522227
93562,CA,ARGUS,35.760817,-117.382992
93563,CA,VALYERMO,34.339014,-117.8271
93601,CA,AHWAHNEE,37.407631,-119.723251
93602,CA,AUBERRY,37.072635,-119.457202
93604,CA,BASS LAKE,37.324359,-119.556839
93608,CA,CANTUA CREEK,36.492123,-120.335252
93609,CA,CARUTHERS,36.535847,-119.844581
93610,CA,CHOWCHILLA,37.101371,-120.269077
93612,CA,CLOVIS,36.823146,-119.689757
93614,CA,COARSEGOLD,37.221378,-119.745545
93615,CA,CUTLER,36.524266,-119.287023
93616,CA,DEL REY,36.654306,-119.59291
93618,CA,DINUBA,36.534931,-119.39087
93620,CA,DOS PALOS,37.00253,-120.633348
93621,CA,DUNLAP,36.744635,-119.089931
93622,CA,FIREBAUGH,36.8651,-120.470048
93623,CA,FISH CAMP,37.51692,-119.642005
93625,CA,FOWLER,36.628153,-119.671025
93626,CA,FRIANT,37.002416,-119.696501
93627,CA,HELM,36.499231,-120.093598
93630,CA,KERMAN,36.730576,-120.072444
93631,CA,KINGSBURG,36.508047,-119.543298
93633,CA,KINGS CANYON NAT,36.780601,-119.068201
93635,CA,LOS BANOS,37.06266,-120.854387
93637,CA,MADERA,36.94026,-120.081966
93638,CA,MADERA,36.968726,-120.012778
93640,CA,MENDOTA,36.742365,-120.409287
93641,CA,MIRAMONTE,36.68938,-119.047718
93643,CA,NORTH FORK,37.212531,-119.514324
93644,CA,OAKHURST,37.347561,-119.644854
93645,CA,O NEALS,37.086874,-119.745369
93646,CA,ORANGE COVE,36.624283,-119.313502
93647,CA,OROSI,36.546368,-119.281522
93648,CA,PARLIER,36.610265,-119.537482
93650,CA,PINEDALE,36.841107,-119.800359
93651,CA,PRATHER,36.993799,-119.526771
93652,CA,RAISIN,36.598928,-119.903158
93653,CA,RAYMOND,37.27898,-119.876567
93654,CA,REEDLEY,36.604406,-119.437785
93656,CA,RIVERDALE,36.429525,-119.871953
93657,CA,SANGER,36.7243,-119.547796
93660,CA,SAN JOAQUIN,36.605869,-120.188934
93662,CA,SELMA,36.569524,-119.617026
93664,CA,SHAVER LAKE,37.139695,-119.273031
93667,CA,TOLLHOUSE,36.99434,-119.391415
93668,CA,TRANQUILLITY,36.658376,-120.261655
93669,CA,WISHON,37.281028,-119.557014
93675,CA,SQUAW VALLEY,36.707146,-119.181449
93701,CA,FRESNO,36.748727,-119.786705
93702,CA,FRESNO,36.739954,-119.753215
93703,CA,FRESNO,36.768445,-119.759401
93704,CA,FIG GARDEN VILLA,36.798781,-119.799745
93705,CA,FRESNO,36.786285,-119.828617
93706,CA,EASTON,36.700589,-119.820408
93710,CA,FRESNO,36.823643,-119.76205
93711,CA,FRESNO,36.830297,-119.831896
93720,CA,FRESNO,36.857944,-119.765522
93721,CA,FRESNO,36.737714,-119.784273
93722,CA,FRESNO,36.791779,-119.880119
93725,CA,CALWA,36.675312,-119.742477
93726,CA,FRESNO,36.794943,-119.760445
93727,CA,FRESNO,36.752796,-119.706055
93728,CA,FRESNO,36.758095,-119.811314
93901,CA,SALINAS,36.667693,-121.659589
93905,CA,SALINAS,36.681143,-121.617606
93906,CA,SALINAS,36.710339,-121.643805
93907,CA,PRUNEDALE,36.765385,-121.665588
93908,CA,SALINAS,36.601122,-121.672861
93920,CA,BIG SUR,36.245798,-121.700897
93923,CA,CARMEL,36.545693,-121.894875
93924,CA,CARMEL VALLEY,36.478709,-121.724356
93925,CA,CHUALAR,36.595042,-121.431964
93926,CA,GONZALES,36.490038,-121.410347
93927,CA,GREENFIELD,36.320178,-121.24507
93930,CA,KING CITY,36.202776,-121.127329
93932,CA,LOCKWOOD,35.989287,-121.205946
93933,CA,MARINA,36.684922,-121.793383
93940,CA,DEL REY OAKS,36.595642,-121.8848
93941,CA,FORT ORD,36.644627,-121.804999
93950,CA,PACIFIC GROVE,36.616737,-121.921957
93953,CA,PEBBLE BEACH,36.590735,-121.942044
93955,CA,SAND CITY,36.609208,-121.835724
93960,CA,SOLEDAD,36.41964,-121.324286
94002,CA,BELMONT,37.517433,-122.292671
94005,CA,BRISBANE,37.681104,-122.400118
94010,CA,HILLSBOROUGH,37.575884,-122.362952
94014,CA,COLMA,37.698187,-122.452679
94015,CA,DALY CITY,37.678696,-122.478015
94019,CA,HALF MOON BAY,37.479057,-122.445929
94020,CA,LA HONDA,37.272285,-122.293889
94021,CA,LOMA MAR,37.254437,-122.281996
94022,CA,LOS ALTOS,37.381432,-122.125754
94024,CA,LOS ALTOS,37.354745,-122.086205
94025,CA,WEST MENLO PARK,37.453401,-122.179136
94027,CA,ATHERTON,37.456255,-122.200198
94028,CA,LADERA,37.378859,-122.208131
94030,CA,MILLBRAE,37.600382,-122.401985
94035,CA,MOFFETT FIELD,37.41001,-122.051944
94038,CA,MOSS BEACH,37.531039,-122.50683
94040,CA,MOUNTAIN VIEW,37.385532,-122.087983
94041,CA,MOUNTAIN VIEW,37.389347,-122.078341
94043,CA,MOUNTAIN VIEW,37.405567,-122.077468
94044,CA,PACIFICA,37.619559,-122.481607
94060,CA,PESCADERO,37.206518,-122.364876
94061,CA,REDWOOD CITY,37.464661,-122.230406
94062,CA,WOODSIDE,37.452119,-122.255879
94063,CA,REDWOOD CITY,37.481544,-122.209134
94065,CA,REDWOOD CITY,37.533128,-122.248564
94066,CA,SAN BRUNO,37.624742,-122.429021
94070,CA,SAN CARLOS,37.496859,-122.267356
94074,CA,SAN GREGORIO,37.325513,-122.355552
94080,CA,SOUTH SAN FRANCI,37.65382,-122.4347
94086,CA,SUNNYVALE,37.376407,-122.023771
94087,CA,SUNNYVALE,37.350214,-122.034859
94089,CA,SUNNYVALE,37.398255,-122.000637
94102,CA,SAN FRANCISCO,37.781334,-122.416728
94103,CA,SAN FRANCISCO,37.77254,-122.414664
94104,CA,SAN FRANCISCO,37.791487,-122.401826
94105,CA,SAN FRANCISCO,37.786427,-122.389229
94107,CA,SAN FRANCISCO,37.762147,-122.397099
94108,CA,SAN FRANCISCO,37.792931,-122.40791
94109,CA,SAN FRANCISCO,37.791687,-122.418579
94110,CA,SAN FRANCISCO,37.750858,-122.415344
94111,CA,SAN FRANCISCO,37.797376,-122.400147
94112,CA,SAN FRANCISCO,37.71954,-122.441081
94114,CA,SAN FRANCISCO,37.758716,-122.432977
94115,CA,SAN FRANCISCO,37.785607,-122.435835
94116,CA,SAN FRANCISCO,37.744144,-122.486296
94117,CA,SAN FRANCISCO,37.771234,-122.441272
94118,CA,SAN FRANCISCO,37.781174,-122.461414
94121,CA,SAN FRANCISCO,37.778616,-122.489178
94122,CA,SAN FRANCISCO,37.759326,-122.483647
94123,CA,SAN FRANCISCO,37.799865,-122.434163
94124,CA,SAN FRANCISCO,37.730888,-122.388649
94127,CA,SAN FRANCISCO,37.735385,-122.457116
94129,CA,SAN FRANCISCO,37.800507,-122.464958
94130,CA,SAN FRANCISCO,37.823128,-122.369319
94131,CA,SAN FRANCISCO,37.745032,-122.438335
94132,CA,SAN FRANCISCO,37.721118,-122.47545
94133,CA,SAN FRANCISCO,37.800175,-122.409081
94134,CA,SAN FRANCISCO,37.718968,-122.409577
94301,CA,PALO ALTO,37.444324,-122.149685
94303,CA,EAST PALO ALTO,37.455641,-122.131902
94304,CA,PALO ALTO,37.433424,-122.184234
94305,CA,STANFORD,37.423573,-122.161867
94306,CA,PALO ALTO,37.418009,-122.127375
94401,CA,RUSSIAN RIVER,37.572271,-122.320262
94402,CA,SAN MATEO,37.550685,-122.32762
94403,CA,SAN MATEO,37.539495,-122.299796
94404,CA,FOSTER CITY,37.551614,-122.263577
94501,CA,COAST GUARD ISLA,37.764783,-122.260516
94507,CA,ALAMO,37.853695,-122.022868
94508,CA,ANGWIN,38.576906,-122.447732
94509,CA,ANTIOCH,37.993917,-121.808906
94510,CA,BENICIA,38.068459,-122.161392
94512,CA,BIRDS LANDING,38.150402,-121.844318
94513,CA,BRENTWOOD,37.932415,-121.689427
94514,CA,BYRON,37.902616,-121.602211
